{
  "101": {
    "borough": "Bronx",
    "borough_code": "Bx",
    "lat": 40.889248,
    "lines": [
      "1"
    ],
    "lon": -73.898583,
    "name": "Van Cortlandt Park-242 St",
    "north_label": null,
    "south_label": "Manhattan"
  },
  "103": {
    "borough": "Bronx",
    "borough_code": "Bx",
    "lat": 40.884667,
    "lines": [
      "1"
    ],
    "lon": -73.90087,
    "name": "238 St",
    "north_label": "242 St",
    "south_label": "Manhattan"
  },
  "104": {
    "borough": "Bronx",
    "borough_code": "Bx",
    "lat": 40.878856,
    "lines": [
      "1"
    ],
    "lon": -73.904834,
    "name": "231 St",
    "north_label": "242 St",
    "south_label": "Manhattan"
  },
  "106": {
    "borough": "Manhattan",
    "borough_code": "M",
    "lat": 40.874561,
    "lines": [
      "1"
    ],
    "lon": -73.909831,
    "name": "Marble Hill-225 St",
    "north_label": "242 St",
    "south_label": "Downtown"
  },
  "107": {
    "borough": "Manhattan",
    "borough_code": "M",
    "lat": 40.869444,
    "lines": [
      "1"
    ],
    "lon": -73.915279,
    "name": "215 St",
    "north_label": "The Bronx",
    "south_label": "Downtown"
  },
  "108": {
    "borough": "Manhattan",
    "borough_code": "M",
    "lat": 40.864621,
    "lines": [
      "1"
    ],
    "lon": -73.918822,
    "name": "207 St",
    "north_label": "Uptown & The Bronx",
    "south_label": "Downtown"
  },
  "109": {
    "borough": "Manhattan",
    "borough_code": "M",
    "lat": 40.860531,
    "lines": [
      "1"
    ],
    "lon": -73.925536,
    "name": "Dyckman St",
    "north_label": "Uptown & The Bronx",
    "south_label": "Downtown"
  },
  "110": {
    "borough": "Manhattan",
    "borough_code": "M",
    "lat": 40.855225,
    "lines": [
      "1"
    ],
    "lon": -73.929412,
    "name": "191 St",
    "north_label": "Uptown & The Bronx",
    "south_label": "Downtown"
  },
  "111": {
    "borough": "Manhattan",
    "borough_code": "M",
    "lat": 40.849505,
    "lines": [
      "1"
    ],
    "lon": -73.933596,
    "name": "181 St",
    "north_label": "Uptown & The Bronx",
    "south_label": "Downtown"
  },
  "112": {
    "borough": "Manhattan",
    "borough_code": "M",
    "lat": 40.840556,
    "lines": [
      "1"
    ],
    "lon": -73.940133,
    "name": "168 St-Washington Hts",
    "north_label": "Uptown & The Bronx",
    "south_label": "Downtown"
  },
  "113": {
    "borough": "Manhattan",
    "borough_code": "M",
    "lat": 40.834041,
    "lines": [
      "1"
    ],
    "lon": -73.94489,
    "name": "157 St",
    "north_label": "Uptown & The Bronx",
    "south_label": "Downtown"
  },
  "114": {
    "borough": "Manhattan",
    "borough_code": "M",
    "lat": 40.826551,
    "lines": [
      "1"
    ],
    "lon": -73.95036,
    "name": "145 St",
    "north_label": "Uptown & The Bronx",
    "south_label": "Downtown"
  },
  "115": {
    "borough": "Manhattan",
    "borough_code": "M",
    "lat": 40.822008,
    "lines": [
      "1"
    ],
    "lon": -73.953676,
    "name": "137 St-City College",
    "north_label": "Uptown & The Bronx",
    "south_label": "Downtown"
  },
  "116": {
    "borough": "Manhattan",
    "borough_code": "M",
    "lat": 40.815581,
    "lines": [
      "1"
    ],
    "lon": -73.958372,
    "name": "125 St",
    "north_label": "Uptown & The Bronx",
    "south_label": "Downtown"
  },
  "117": {
    "borough": "Manhattan",
    "borough_code": "M",
    "lat": 40.807722,
    "lines": [
      "1"
    ],
    "lon": -73.96411,
    "name": "116 St-Columbia University",
    "north_label": "Uptown & The Bronx",
    "south_label": "Downtown"
  },
  "118": {
    "borough": "Manhattan",
    "borough_code": "M",
    "lat": 40.803967,
    "lines": [
      "1"
    ],
    "lon": -73.966847,
    "name": "Cathedral Pkwy (110 St)",
    "north_label": "Uptown & The Bronx",
    "south_label": "Downtown"
  },
  "119": {
    "borough": "Manhattan",
    "borough_code": "M",
    "lat": 40.799446,
    "lines": [
      "1"
    ],
    "lon": -73.968379,
    "name": "103 St",
    "north_label": "Uptown & The Bronx",
    "south_label": "Downtown"
  },
  "120": {
    "borough": "Manhattan",
    "borough_code": "M",
    "lat": 40.793919,
    "lines": [
      "1",
      "2",
      "3"
    ],
    "lon": -73.972323,
    "name": "96 St",
    "north_label": "Uptown & The Bronx",
    "south_label": "Downtown & Brooklyn"
  },
  "121": {
    "borough": "Manhattan",
    "borough_code": "M",
    "lat": 40.788644,
    "lines": [
      "1"
    ],
    "lon": -73.976218,
    "name": "86 St",
    "north_label": "Uptown & The Bronx",
    "south_label": "Downtown"
  },
  "122": {
    "borough": "Manhattan",
    "borough_code": "M",
    "lat": 40.783934,
    "lines": [
      "1"
    ],
    "lon": -73.979917,
    "name": "79 St",
    "north_label": "Uptown & The Bronx",
    "south_label": "Downtown"
  },
  "123": {
    "borough": "Manhattan",
    "borough_code": "M",
    "lat": 40.778453,
    "lines": [
      "1",
      "2",
      "3"
    ],
    "lon": -73.98197,
    "name": "72 St",
    "north_label": "Uptown & The Bronx",
    "south_label": "Downtown & Brooklyn"
  },
  "124": {
    "borough": "Manhattan",
    "borough_code": "M",
    "lat": 40.77344,
    "lines": [
      "1"
    ],
    "lon": -73.982209,
    "name": "66 St-Lincoln Center",
    "north_label": "Uptown & The Bronx",
    "south_label": "Downtown"
  },
  "125": {
    "borough": "Manhattan",
    "borough_code": "M",
    "lat": 40.768247,
    "lines": [
      "1"
    ],
    "lon": -73.981929,
    "name": "59 St-Columbus Circle",
    "north_label": "Uptown & The Bronx",
    "south_label": "Downtown"
  },
  "126": {
    "borough": "Manhattan",
    "borough_code": "M",
    "lat": 40.761728,
    "lines": [
      "1"
    ],
    "lon": -73.983849,
    "name": "50 St",
    "north_label": "Uptown & The Bronx",
    "south_label": "Downtown"
  },
  "127": {
    "borough": "Manhattan",
    "borough_code": "M",
    "lat": 40.75529,
    "lines": [
      "1",
      "2",
      "3"
    ],
    "lon": -73.987495,
    "name": "Times Sq-42 St",
    "north_label": "Uptown & The Bronx",
    "south_label": "Downtown & Brooklyn"
  },
  "128": {
    "borough": "Manhattan",
    "borough_code": "M",
    "lat": 40.750373,
    "lines": [
      "1",
      "2",
      "3"
    ],
    "lon": -73.991057,
    "name": "34 St-Penn Station",
    "north_label": "Uptown & The Bronx",
    "south_label": "Downtown & Brooklyn"
  },
  "129": {
    "borough": "Manhattan",
    "borough_code": "M",
    "lat": 40.747215,
    "lines": [
      "1"
    ],
    "lon": -73.993365,
    "name": "28 St",
    "north_label": "Uptown & The Bronx",
    "south_label": "Downtown"
  },
  "130": {
    "borough": "Manhattan",
    "borough_code": "M",
    "lat": 40.744081,
    "lines": [
      "1"
    ],
    "lon": -73.995657,
    "name": "23 St",
    "north_label": "Uptown & The Bronx",
    "south_label": "Downtown"
  },
  "131": {
    "borough": "Manhattan",
    "borough_code": "M",
    "lat": 40.74104,
    "lines": [
      "1"
    ],
    "lon": -73.997871,
    "name": "18 St",
    "north_label": "Uptown & The Bronx",
    "south_label": "Downtown"
  },
  "132": {
    "borough": "Manhattan",
    "borough_code": "M",
    "lat": 40.737826,
    "lines": [
      "1",
      "2",
      "3"
    ],
    "lon": -74.000201,
    "name": "14 St",
    "north_label": "Uptown & The Bronx",
    "south_label": "Downtown & Brooklyn"
  },
  "133": {
    "borough": "Manhattan",
    "borough_code": "M",
    "lat": 40.733422,
    "lines": [
      "1"
    ],
    "lon": -74.002906,
    "name": "Christopher St-Stonewall",
    "north_label": "Uptown & The Bronx",
    "south_label": "Downtown"
  },
  "134": {
    "borough": "Manhattan",
    "borough_code": "M",
    "lat": 40.728251,
    "lines": [
      "1"
    ],
    "lon": -74.005367,
    "name": "Houston St",
    "north_label": "Uptown & The Bronx",
    "south_label": "Downtown"
  },
  "135": {
    "borough": "Manhattan",
    "borough_code": "M",
    "lat": 40.722854,
    "lines": [
      "1"
    ],
    "lon": -74.006277,
    "name": "Canal St",
    "north_label": "Uptown & The Bronx",
    "south_label": "Downtown"
  },
  "136": {
    "borough": "Manhattan",
    "borough_code": "M",
    "lat": 40.719318,
    "lines": [
      "1"
    ],
    "lon": -74.006886,
    "name": "Franklin St",
    "north_label": "Uptown & The Bronx",
    "south_label": "Downtown"
  },
  "137": {
    "borough": "Manhattan",
    "borough_code": "M",
    "lat": 40.715478,
    "lines": [
      "1",
      "2",
      "3"
    ],
    "lon": -74.009266,
    "name": "Chambers St",
    "north_label": "Uptown & The Bronx",
    "south_label": "Downtown & Brooklyn"
  },
  "138": {
    "borough": "Manhattan",
    "borough_code": "M",
    "lat": 40.711835,
    "lines": [
      "1"
    ],
    "lon": -74.012188,
    "name": "WTC Cortlandt",
    "north_label": "Uptown & The Bronx",
    "south_label": "Downtown"
  },
  "139": {
    "borough": "Manhattan",
    "borough_code": "M",
    "lat": 40.707513,
    "lines": [
      "1"
    ],
    "lon": -74.013783,
    "name": "Rector St",
    "north_label": "Uptown & The Bronx",
    "south_label": "Downtown"
  },
  "142": {
    "borough": "Manhattan",
    "borough_code": "M",
    "lat": 40.702068,
    "lines": [
      "1"
    ],
    "lon": -74.013664,
    "name": "South Ferry",
    "north_label": "Uptown & The Bronx",
    "south_label": null
  },
  "201": {
    "borough": "Bronx",
    "borough_code": "Bx",
    "lat": 40.903125,
    "lines": [
      "2"
    ],
    "lon": -73.85062,
    "name": "Wakefield-241 St",
    "north_label": null,
    "south_label": "Manhattan"
  },
  "204": {
    "borough": "Bronx",
    "borough_code": "Bx",
    "lat": 40.898379,
    "lines": [
      "2",
      "5"
    ],
    "lon": -73.854376,
    "name": "Nereid Av",
    "north_label": "Wakefield - 241 St",
    "south_label": "Manhattan"
  },
  "205": {
    "borough": "Bronx",
    "borough_code": "Bx",
    "lat": 40.893193,
    "lines": [
      "2",
      "5"
    ],
    "lon": -73.857473,
    "name": "233 St",
    "north_label": "Wakefield - 241 St",
    "south_label": "Manhattan"
  },
  "206": {
    "borough": "Bronx",
    "borough_code": "Bx",
    "lat": 40.888022,
    "lines": [
      "2",
      "5"
    ],
    "lon": -73.860341,
    "name": "225 St",
    "north_label": "Wakefield - 241 St",
    "south_label": "Manhattan"
  },
  "207": {
    "borough": "Bronx",
    "borough_code": "Bx",
    "lat": 40.883895,
    "lines": [
      "2",
      "5"
    ],
    "lon": -73.862633,
    "name": "219 St",
    "north_label": "Wakefield - 241 St",
    "south_label": "Manhattan"
  },
  "208": {
    "borough": "Bronx",
    "borough_code": "Bx",
    "lat": 40.87785,
    "lines": [
      "2",
      "5"
    ],
    "lon": -73.866256,
    "name": "Gun Hill Rd",
    "north_label": "Wakefield - 241 St",
    "south_label": "Manhattan"
  },
  "209": {
    "borough": "Bronx",
    "borough_code": "Bx",
    "lat": 40.871356,
    "lines": [
      "2",
      "5"
    ],
    "lon": -73.867164,
    "name": "Burke Av",
    "north_label": "Wakefield - 241 St",
    "south_label": "Manhattan"
  },
  "210": {
    "borough": "Bronx",
    "borough_code": "Bx",
    "lat": 40.865462,
    "lines": [
      "2",
      "5"
    ],
    "lon": -73.867352,
    "name": "Allerton Av",
    "north_label": "Wakefield - 241 St",
    "south_label": "Manhattan"
  },
  "211": {
    "borough": "Bronx",
    "borough_code": "Bx",
    "lat": 40.857192,
    "lines": [
      "2",
      "5"
    ],
    "lon": -73.867615,
    "name": "Pelham Pkwy",
    "north_label": "Wakefield - 241 St",
    "south_label": "Manhattan"
  },
  "212": {
    "borough": "Bronx",
    "borough_code": "Bx",
    "lat": 40.848828,
    "lines": [
      "2",
      "5"
    ],
    "lon": -73.868457,
    "name": "Bronx Park East",
    "north_label": "Wakefield - 241 St",
    "south_label": "Manhattan"
  },
  "213": {
    "borough": "Bronx",
    "borough_code": "Bx",
    "lat": 40.841894,
    "lines": [
      "2",
      "5"
    ],
    "lon": -73.873488,
    "name": "E 180 St",
    "north_label": "Wakefield - Eastchester",
    "south_label": "Manhattan"
  },
  "214": {
    "borough": "Bronx",
    "borough_code": "Bx",
    "lat": 40.840295,
    "lines": [
      "2",
      "5"
    ],
    "lon": -73.880049,
    "name": "West Farms Sq-E Tremont Av",
    "north_label": "Wakefield - Eastchester",
    "south_label": "Manhattan"
  },
  "215": {
    "borough": "Bronx",
    "borough_code": "Bx",
    "lat": 40.837288,
    "lines": [
      "2",
      "5"
    ],
    "lon": -73.887734,
    "name": "174 St",
    "north_label": "Wakefield - Eastchester",
    "south_label": "Manhattan"
  },
  "216": {
    "borough": "Bronx",
    "borough_code": "Bx",
    "lat": 40.829993,
    "lines": [
      "2",
      "5"
    ],
    "lon": -73.891865,
    "name": "Freeman St",
    "north_label": "Wakefield - Eastchester",
    "south_label": "Manhattan"
  },
  "217": {
    "borough": "Bronx",
    "borough_code": "Bx",
    "lat": 40.824073,
    "lines": [
      "2",
      "5"
    ],
    "lon": -73.893064,
    "name": "Simpson St",
    "north_label": "Wakefield - Eastchester",
    "south_label": "Manhattan"
  },
  "218": {
    "borough": "Bronx",
    "borough_code": "Bx",
    "lat": 40.822181,
    "lines": [
      "2",
      "5"
    ],
    "lon": -73.896736,
    "name": "Intervale Av",
    "north_label": "Wakefield - Eastchester",
    "south_label": "Manhattan"
  },
  "219": {
    "borough": "Bronx",
    "borough_code": "Bx",
    "lat": 40.819585,
    "lines": [
      "2",
      "5"
    ],
    "lon": -73.90177,
    "name": "Prospect Av",
    "north_label": "Wakefield - Eastchester",
    "south_label": "Manhattan"
  },
  "220": {
    "borough": "Bronx",
    "borough_code": "Bx",
    "lat": 40.81649,
    "lines": [
      "2",
      "5"
    ],
    "lon": -73.907807,
    "name": "Jackson Av",
    "north_label": "Wakefield - Eastchester",
    "south_label": "Manhattan"
  },
  "221": {
    "borough": "Bronx",
    "borough_code": "Bx",
    "lat": 40.816109,
    "lines": [
      "2",
      "5"
    ],
    "lon": -73.917757,
    "name": "3 Av-149 St",
    "north_label": "Wakefield - Eastchester",
    "south_label": "Manhattan"
  },
  "222": {
    "borough": "Bronx",
    "borough_code": "Bx",
    "lat": 40.81841,
    "lines": [
      "2",
      "5"
    ],
    "lon": -73.926718,
    "name": "149 St-Grand Concourse",
    "north_label": "Wakefield - Eastchester",
    "south_label": "Manhattan"
  },
  "224": {
    "borough": "Manhattan",
    "borough_code": "M",
    "lat": 40.814229,
    "lines": [
      "2",
      "3"
    ],
    "lon": -73.94077,
    "name": "135 St",
    "north_label": "Uptown & The Bronx",
    "south_label": "Downtown & Brooklyn"
  },
  "225": {
    "borough": "Manhattan",
    "borough_code": "M",
    "lat": 40.807754,
    "lines": [
      "2",
      "3"
    ],
    "lon": -73.945495,
    "name": "125 St",
    "north_label": "Uptown & The Bronx",
    "south_label": "Downtown & Brooklyn"
  },
  "226": {
    "borough": "Manhattan",
    "borough_code": "M",
    "lat": 40.802098,
    "lines": [
      "2",
      "3"
    ],
    "lon": -73.949625,
    "name": "116 St",
    "north_label": "Uptown & The Bronx",
    "south_label": "Downtown & Brooklyn"
  },
  "227": {
    "borough": "Manhattan",
    "borough_code": "M",
    "lat": 40.799075,
    "lines": [
      "2",
      "3"
    ],
    "lon": -73.951822,
    "name": "110 St-Malcolm X Plaza",
    "north_label": "Uptown & The Bronx",
    "south_label": "Downtown & Brooklyn"
  },
  "228": {
    "borough": "Manhattan",
    "borough_code": "M",
    "lat": 40.713051,
    "lines": [
      "2",
      "3"
    ],
    "lon": -74.008811,
    "name": "Park Place",
    "north_label": "Uptown & The Bronx",
    "south_label": "Downtown & Brooklyn"
  },
  "229": {
    "borough": "Manhattan",
    "borough_code": "M",
    "lat": 40.709416,
    "lines": [
      "2",
      "3"
    ],
    "lon": -74.006571,
    "name": "Fulton St",
    "north_label": "Uptown & The Bronx",
    "south_label": "Downtown & Brooklyn"
  },
  "230": {
    "borough": "Manhattan",
    "borough_code": "M",
    "lat": 40.706821,
    "lines": [
      "2",
      "3"
    ],
    "lon": -74.0091,
    "name": "Wall St",
    "north_label": "Uptown & The Bronx",
    "south_label": "Brooklyn"
  },
  "231": {
    "borough": "Brooklyn",
    "borough_code": "Bk",
    "lat": 40.697466,
    "lines": [
      "2",
      "3"
    ],
    "lon": -73.993086,
    "name": "Clark St",
    "north_label": "Manhattan",
    "south_label": "Flatbush - New Lots"
  },
  "232": {
    "borough": "Brooklyn",
    "borough_code": "Bk",
    "lat": 40.693219,
    "lines": [
      "2",
      "3"
    ],
    "lon": -73.989998,
    "name": "Borough Hall",
    "north_label": "Manhattan",
    "south_label": "Flatbush - New Lots"
  },
  "233": {
    "borough": "Brooklyn",
    "borough_code": "Bk",
    "lat": 40.690545,
    "lines": [
      "2",
      "3"
    ],
    "lon": -73.985065,
    "name": "Hoyt St",
    "north_label": "Manhattan",
    "south_label": "Flatbush - New Lots"
  },
  "234": {
    "borough": "Brooklyn",
    "borough_code": "Bk",
    "lat": 40.688246,
    "lines": [
      "2",
      "3",
      "4",
      "5"
    ],
    "lon": -73.980492,
    "name": "Nevins St",
    "north_label": "Manhattan",
    "south_label": "Flatbush - Utica - New Lots"
  },
  "235": {
    "borough": "Brooklyn",
    "borough_code": "Bk",
    "lat": 40.684359,
    "lines": [
      "2",
      "3",
      "4",
      "5"
    ],
    "lon": -73.977666,
    "name": "Atlantic Av-Barclays Ctr",
    "north_label": "Manhattan",
    "south_label": "Flatbush - New Lots"
  },
  "236": {
    "borough": "Brooklyn",
    "borough_code": "Bk",
    "lat": 40.680829,
    "lines": [
      "2",
      "3"
    ],
    "lon": -73.975098,
    "name": "Bergen St",
    "north_label": "Manhattan",
    "south_label": "Flatbush - New Lots"
  },
  "237": {
    "borough": "Brooklyn",
    "borough_code": "Bk",
    "lat": 40.675235,
    "lines": [
      "2",
      "3"
    ],
    "lon": -73.971046,
    "name": "Grand Army Plaza",
    "north_label": "Manhattan",
    "south_label": "Flatbush - New Lots"
  },
  "238": {
    "borough": "Brooklyn",
    "borough_code": "Bk",
    "lat": 40.671987,
    "lines": [
      "2",
      "3"
    ],
    "lon": -73.964375,
    "name": "Eastern Pkwy-Brooklyn Museum",
    "north_label": "Manhattan",
    "south_label": "Flatbush - New Lots"
  },
  "239": {
    "borough": "Brooklyn",
    "borough_code": "Bk",
    "lat": 40.670682,
    "lines": [
      "2",
      "3",
      "4",
      "5"
    ],
    "lon": -73.958131,
    "name": "Franklin Av-Medgar Evers College",
    "north_label": "Manhattan",
    "south_label": "Flatbush - Utica - New Lots"
  },
  "241": {
    "borough": "Brooklyn",
    "borough_code": "Bk",
    "lat": 40.667883,
    "lines": [
      "2",
      "5"
    ],
    "lon": -73.950683,
    "name": "President St-Medgar Evers College",
    "north_label": "Manhattan",
    "south_label": "Flatbush"
  },
  "242": {
    "borough": "Brooklyn",
    "borough_code": "Bk",
    "lat": 40.662742,
    "lines": [
      "2",
      "5"
    ],
    "lon": -73.95085,
    "name": "Sterling St",
    "north_label": "Manhattan",
    "south_label": "Flatbush"
  },
  "243": {
    "borough": "Brooklyn",
    "borough_code": "Bk",
    "lat": 40.656652,
    "lines": [
      "2",
      "5"
    ],
    "lon": -73.9502,
    "name": "Winthrop St",
    "north_label": "Manhattan",
    "south_label": "Flatbush"
  },
  "244": {
    "borough": "Brooklyn",
    "borough_code": "Bk",
    "lat": 40.650843,
    "lines": [
      "2",
      "5"
    ],
    "lon": -73.949575,
    "name": "Church Av",
    "north_label": "Manhattan",
    "south_label": "Flatbush"
  },
  "245": {
    "borough": "Brooklyn",
    "borough_code": "Bk",
    "lat": 40.645098,
    "lines": [
      "2",
      "5"
    ],
    "lon": -73.948959,
    "name": "Beverly Rd",
    "north_label": "Manhattan",
    "south_label": "Flatbush"
  },
  "246": {
    "borough": "Brooklyn",
    "borough_code": "Bk",
    "lat": 40.639967,
    "lines": [
      "2",
      "5"
    ],
    "lon": -73.948411,
    "name": "Newkirk Av-Little Haiti",
    "north_label": "Manhattan",
    "south_label": "Flatbush"
  },
  "247": {
    "borough": "Brooklyn",
    "borough_code": "Bk",
    "lat": 40.632836,
    "lines": [
      "2",
      "5"
    ],
    "lon": -73.947642,
    "name": "Flatbush Av-Brooklyn College",
    "north_label": "Manhattan",
    "south_label": null
  },
  "248": {
    "borough": "Brooklyn",
    "borough_code": "Bk",
    "lat": 40.669847,
    "lines": [
      "3"
    ],
    "lon": -73.950466,
    "name": "Nostrand Av",
    "north_label": "Manhattan",
    "south_label": "New Lots"
  },
  "249": {
    "borough": "Brooklyn",
    "borough_code": "Bk",
    "lat": 40.669399,
    "lines": [
      "3"
    ],
    "lon": -73.942161,
    "name": "Kingston Av",
    "north_label": "Manhattan",
    "south_label": "New Lots"
  },
  "250": {
    "borough": "Brooklyn",
    "borough_code": "Bk",
    "lat": 40.668897,
    "lines": [
      "3",
      "4"
    ],
    "lon": -73.932942,
    "name": "Crown Hts-Utica Av",
    "north_label": "Manhattan",
    "south_label": "New Lots"
  },
  "251": {
    "borough": "Brooklyn",
    "borough_code": "Bk",
    "lat": 40.664717,
    "lines": [
      "3"
    ],
    "lon": -73.92261,
    "name": "Sutter Av-Rutland Rd",
    "north_label": "Manhattan",
    "south_label": "New Lots"
  },
  "252": {
    "borough": "Brooklyn",
    "borough_code": "Bk",
    "lat": 40.661453,
    "lines": [
      "3"
    ],
    "lon": -73.916327,
    "name": "Saratoga Av",
    "north_label": "Manhattan",
    "south_label": "New Lots"
  },
  "253": {
    "borough": "Brooklyn",
    "borough_code": "Bk",
    "lat": 40.662549,
    "lines": [
      "3"
    ],
    "lon": -73.908946,
    "name": "Rockaway Av",
    "north_label": "Manhattan",
    "south_label": "New Lots"
  },
  "254": {
    "borough": "Brooklyn",
    "borough_code": "Bk",
    "lat": 40.663515,
    "lines": [
      "3"
    ],
    "lon": -73.902447,
    "name": "Junius St",
    "north_label": "Manhattan",
    "south_label": "New Lots"
  },
  "255": {
    "borough": "Brooklyn",
    "borough_code": "Bk",
    "lat": 40.664635,
    "lines": [
      "3"
    ],
    "lon": -73.894895,
    "name": "Pennsylvania Av",
    "north_label": "Manhattan",
    "south_label": "New Lots"
  },
  "256": {
    "borough": "Brooklyn",
    "borough_code": "Bk",
    "lat": 40.665449,
    "lines": [
      "3"
    ],
    "lon": -73.889395,
    "name": "Van Siclen Av",
    "north_label": "Manhattan",
    "south_label": "New Lots"
  },
  "257": {
    "borough": "Brooklyn",
    "borough_code": "Bk",
    "lat": 40.666235,
    "lines": [
      "3"
    ],
    "lon": -73.884079,
    "name": "New Lots Av",
    "north_label": "Manhattan",
    "south_label": null
  },
  "301": {
    "borough": "Manhattan",
    "borough_code": "M",
    "lat": 40.82388,
    "lines": [
      "3"
    ],
    "lon": -73.93647,
    "name": "Harlem-148 St",
    "north_label": null,
    "south_label": "Downtown & Brooklyn"
  },
  "302": {
    "borough": "Manhattan",
    "borough_code": "M",
    "lat": 40.820421,
    "lines": [
      "3"
    ],
    "lon": -73.936245,
    "name": "145 St",
    "north_label": "148 St",
    "south_label": "Downtown & Brooklyn"
  },
  "401": {
    "borough": "Bronx",
    "borough_code": "Bx",
    "lat": 40.886037,
    "lines": [
      "4"
    ],
    "lon": -73.878751,
    "name": "Woodlawn",
    "north_label": null,
    "south_label": "Manhattan"
  },
  "402": {
    "borough": "Bronx",
    "borough_code": "Bx",
    "lat": 40.87975,
    "lines": [
      "4"
    ],
    "lon": -73.884655,
    "name": "Mosholu Pkwy",
    "north_label": "Woodlawn",
    "south_label": "Manhattan"
  },
  "405": {
    "borough": "Bronx",
    "borough_code": "Bx",
    "lat": 40.873412,
    "lines": [
      "4"
    ],
    "lon": -73.890064,
    "name": "Bedford Park Blvd-Lehman College",
    "north_label": "Woodlawn",
    "south_label": "Manhattan"
  },
  "406": {
    "borough": "Bronx",
    "borough_code": "Bx",
    "lat": 40.86776,
    "lines": [
      "4"
    ],
    "lon": -73.897174,
    "name": "Kingsbridge Rd",
    "north_label": "Woodlawn",
    "south_label": "Manhattan"
  },
  "407": {
    "borough": "Bronx",
    "borough_code": "Bx",
    "lat": 40.862803,
    "lines": [
      "4"
    ],
    "lon": -73.901034,
    "name": "Fordham Rd",
    "north_label": "Woodlawn",
    "south_label": "Manhattan"
  },
  "408": {
    "borough": "Bronx",
    "borough_code": "Bx",
    "lat": 40.858407,
    "lines": [
      "4"
    ],
    "lon": -73.903879,
    "name": "183 St",
    "north_label": "Woodlawn",
    "south_label": "Manhattan"
  },
  "409": {
    "borough": "Bronx",
    "borough_code": "Bx",
    "lat": 40.853453,
    "lines": [
      "4"
    ],
    "lon": -73.907684,
    "name": "Burnside Av",
    "north_label": "Woodlawn",
    "south_label": "Manhattan"
  },
  "410": {
    "borough": "Bronx",
    "borough_code": "Bx",
    "lat": 40.84848,
    "lines": [
      "4"
    ],
    "lon": -73.911794,
    "name": "176 St",
    "north_label": "Woodlawn",
    "south_label": "Manhattan"
  },
  "411": {
    "borough": "Bronx",
    "borough_code": "Bx",
    "lat": 40.844434,
    "lines": [
      "4"
    ],
    "lon": -73.914685,
    "name": "Mt Eden Av",
    "north_label": "Woodlawn",
    "south_label": "Manhattan"
  },
  "412": {
    "borough": "Bronx",
    "borough_code": "Bx",
    "lat": 40.840075,
    "lines": [
      "4"
    ],
    "lon": -73.917791,
    "name": "170 St",
    "north_label": "Woodlawn",
    "south_label": "Manhattan"
  },
  "413": {
    "borough": "Bronx",
    "borough_code": "Bx",
    "lat": 40.835537,
    "lines": [
      "4"
    ],
    "lon": -73.9214,
    "name": "167 St",
    "north_label": "Woodlawn",
    "south_label": "Manhattan"
  },
  "414": {
    "borough": "Bronx",
    "borough_code": "Bx",
    "lat": 40.827994,
    "lines": [
      "4"
    ],
    "lon": -73.925831,
    "name": "161 St-Yankee Stadium",
    "north_label": "Woodlawn",
    "south_label": "Manhattan"
  },
  "415": {
    "borough": "Bronx",
    "borough_code": "Bx",
    "lat": 40.818375,
    "lines": [
      "4"
    ],
    "lon": -73.927351,
    "name": "149 St-Grand Concourse",
    "north_label": "Woodlawn",
    "south_label": "Manhattan"
  },
  "416": {
    "borough": "Bronx",
    "borough_code": "Bx",
    "lat": 40.813224,
    "lines": [
      "4",
      "5"
    ],
    "lon": -73.929849,
    "name": "138 St-Grand Concourse",
    "north_label": "Woodlawn - Eastchester Dyre Av",
    "south_label": "Manhattan"
  },
  "418": {
    "borough": "Manhattan",
    "borough_code": "M",
    "lat": 40.710368,
    "lines": [
      "4",
      "5"
    ],
    "lon": -74.009509,
    "name": "Fulton St",
    "north_label": "Uptown & The Bronx",
    "south_label": "Downtown & Brooklyn"
  },
  "419": {
    "borough": "Manhattan",
    "borough_code": "M",
    "lat": 40.707557,
    "lines": [
      "4",
      "5"
    ],
    "lon": -74.011862,
    "name": "Wall St",
    "north_label": "Uptown & The Bronx",
    "south_label": "Downtown & Brooklyn"
  },
  "420": {
    "borough": "Manhattan",
    "borough_code": "M",
    "lat": 40.704817,
    "lines": [
      "4",
      "5"
    ],
    "lon": -74.014065,
    "name": "Bowling Green",
    "north_label": "Uptown & The Bronx",
    "south_label": "Brooklyn"
  },
  "423": {
    "borough": "Brooklyn",
    "borough_code": "Bk",
    "lat": 40.692404,
    "lines": [
      "4",
      "5"
    ],
    "lon": -73.990151,
    "name": "Borough Hall",
    "north_label": "Manhattan",
    "south_label": "Flatbush - Utica"
  },
  "501": {
    "borough": "Bronx",
    "borough_code": "Bx",
    "lat": 40.8883,
    "lines": [
      "5"
    ],
    "lon": -73.830834,
    "name": "Eastchester-Dyre Av",
    "north_label": null,
    "south_label": "Manhattan"
  },
  "502": {
    "borough": "Bronx",
    "borough_code": "Bx",
    "lat": 40.878663,
    "lines": [
      "5"
    ],
    "lon": -73.838591,
    "name": "Baychester Av",
    "north_label": "Eastchester - Dyre Av",
    "south_label": "Manhattan"
  },
  "503": {
    "borough": "Bronx",
    "borough_code": "Bx",
    "lat": 40.869526,
    "lines": [
      "5"
    ],
    "lon": -73.846384,
    "name": "Gun Hill Rd",
    "north_label": "Eastchester - Dyre Av",
    "south_label": "Manhattan"
  },
  "504": {
    "borough": "Bronx",
    "borough_code": "Bx",
    "lat": 40.858985,
    "lines": [
      "5"
    ],
    "lon": -73.855359,
    "name": "Pelham Pkwy",
    "north_label": "Eastchester - Dyre Av",
    "south_label": "Manhattan"
  },
  "505": {
    "borough": "Bronx",
    "borough_code": "Bx",
    "lat": 40.854364,
    "lines": [
      "5"
    ],
    "lon": -73.860495,
    "name": "Morris Park",
    "north_label": "Eastchester - Dyre Av",
    "south_label": "Manhattan"
  },
  "601": {
    "borough": "Bronx",
    "borough_code": "Bx",
    "lat": 40.852462,
    "lines": [
      "6"
    ],
    "lon": -73.828121,
    "name": "Pelham Bay Park",
    "north_label": null,
    "south_label": "Manhattan"
  },
  "602": {
    "borough": "Bronx",
    "borough_code": "Bx",
    "lat": 40.84681,
    "lines": [
      "6"
    ],
    "lon": -73.832569,
    "name": "Buhre Av",
    "north_label": "Pelham Bay Park",
    "south_label": "Manhattan"
  },
  "603": {
    "borough": "Bronx",
    "borough_code": "Bx",
    "lat": 40.843863,
    "lines": [
      "6"
    ],
    "lon": -73.836322,
    "name": "Middletown Rd",
    "north_label": "Pelham Bay Park",
    "south_label": "Manhattan"
  },
  "604": {
    "borough": "Bronx",
    "borough_code": "Bx",
    "lat": 40.839892,
    "lines": [
      "6"
    ],
    "lon": -73.842952,
    "name": "Westchester Sq-E Tremont Av",
    "north_label": "Pelham Bay Park",
    "south_label": "Manhattan"
  },
  "606": {
    "borough": "Bronx",
    "borough_code": "Bx",
    "lat": 40.836488,
    "lines": [
      "6"
    ],
    "lon": -73.847036,
    "name": "Zerega Av",
    "north_label": "Pelham Bay Park",
    "south_label": "Manhattan"
  },
  "607": {
    "borough": "Bronx",
    "borough_code": "Bx",
    "lat": 40.834255,
    "lines": [
      "6"
    ],
    "lon": -73.851222,
    "name": "Castle Hill Av",
    "north_label": "Pelham Bay Park",
    "south_label": "Manhattan"
  },
  "608": {
    "borough": "Bronx",
    "borough_code": "Bx",
    "lat": 40.833226,
    "lines": [
      "6"
    ],
    "lon": -73.860816,
    "name": "Parkchester",
    "north_label": "Pelham Bay Park",
    "south_label": "Manhattan"
  },
  "609": {
    "borough": "Bronx",
    "borough_code": "Bx",
    "lat": 40.831509,
    "lines": [
      "6"
    ],
    "lon": -73.867618,
    "name": "St Lawrence Av",
    "north_label": "Pelham Bay Park",
    "south_label": "Manhattan"
  },
  "610": {
    "borough": "Bronx",
    "borough_code": "Bx",
    "lat": 40.829521,
    "lines": [
      "6"
    ],
    "lon": -73.874516,
    "name": "Morrison Av-Soundview",
    "north_label": "Pelham Bay Park",
    "south_label": "Manhattan"
  },
  "611": {
    "borough": "Bronx",
    "borough_code": "Bx",
    "lat": 40.828584,
    "lines": [
      "6"
    ],
    "lon": -73.879159,
    "name": "Elder Av",
    "north_label": "Pelham Bay Park",
    "south_label": "Manhattan"
  },
  "612": {
    "borough": "Bronx",
    "borough_code": "Bx",
    "lat": 40.826525,
    "lines": [
      "6"
    ],
    "lon": -73.886283,
    "name": "Whitlock Av",
    "north_label": "Pelham Bay Park",
    "south_label": "Manhattan"
  },
  "613": {
    "borough": "Bronx",
    "borough_code": "Bx",
    "lat": 40.820948,
    "lines": [
      "6"
    ],
    "lon": -73.890549,
    "name": "Hunts Point Av",
    "north_label": "Pelham Bay Park",
    "south_label": "Manhattan"
  },
  "614": {
    "borough": "Bronx",
    "borough_code": "Bx",
    "lat": 40.816104,
    "lines": [
      "6"
    ],
    "lon": -73.896435,
    "name": "Longwood Av",
    "north_label": "Pelham Bay Park",
    "south_label": "Manhattan"
  },
  "615": {
    "borough": "Bronx",
    "borough_code": "Bx",
    "lat": 40.812118,
    "lines": [
      "6"
    ],
    "lon": -73.904098,
    "name": "E 149 St",
    "north_label": "Pelham Bay Park",
    "south_label": "Manhattan"
  },
  "616": {
    "borough": "Bronx",
    "borough_code": "Bx",
    "lat": 40.808719,
    "lines": [
      "6"
    ],
    "lon": -73.907657,
    "name": "E 143 St-St Mary's St",
    "north_label": "Pelham Bay Park",
    "south_label": "Manhattan"
  },
  "617": {
    "borough": "Bronx",
    "borough_code": "Bx",
    "lat": 40.805368,
    "lines": [
      "6"
    ],
    "lon": -73.914042,
    "name": "Cypress Av",
    "north_label": "Pelham Bay Park",
    "south_label": "Manhattan"
  },
  "618": {
    "borough": "Bronx",
    "borough_code": "Bx",
    "lat": 40.807566,
    "lines": [
      "6"
    ],
    "lon": -73.91924,
    "name": "Brook Av",
    "north_label": "Pelham Bay Park",
    "south_label": "Manhattan"
  },
  "619": {
    "borough": "Bronx",
    "borough_code": "Bx",
    "lat": 40.810476,
    "lines": [
      "6"
    ],
    "lon": -73.926138,
    "name": "3 Av-138 St",
    "north_label": "Pelham Bay Park",
    "south_label": "Manhattan"
  },
  "621": {
    "borough": "Manhattan",
    "borough_code": "M",
    "lat": 40.804138,
    "lines": [
      "4",
      "5",
      "6"
    ],
    "lon": -73.937594,
    "name": "125 St",
    "north_label": "The Bronx",
    "south_label": "Downtown & Brooklyn"
  },
  "622": {
    "borough": "Manhattan",
    "borough_code": "M",
    "lat": 40.798629,
    "lines": [
      "6"
    ],
    "lon": -73.941617,
    "name": "116 St",
    "north_label": "Uptown & The Bronx",
    "south_label": "Downtown"
  },
  "623": {
    "borough": "Manhattan",
    "borough_code": "M",
    "lat": 40.79502,
    "lines": [
      "6"
    ],
    "lon": -73.94425,
    "name": "110 St",
    "north_label": "Uptown & The Bronx",
    "south_label": "Downtown"
  },
  "624": {
    "borough": "Manhattan",
    "borough_code": "M",
    "lat": 40.7906,
    "lines": [
      "6"
    ],
    "lon": -73.947478,
    "name": "103 St",
    "north_label": "Uptown & The Bronx",
    "south_label": "Downtown"
  },
  "625": {
    "borough": "Manhattan",
    "borough_code": "M",
    "lat": 40.785672,
    "lines": [
      "6"
    ],
    "lon": -73.95107,
    "name": "96 St",
    "north_label": "Uptown & The Bronx",
    "south_label": "Downtown"
  },
  "626": {
    "borough": "Manhattan",
    "borough_code": "M",
    "lat": 40.779492,
    "lines": [
      "4",
      "5",
      "6"
    ],
    "lon": -73.955589,
    "name": "86 St",
    "north_label": "Uptown & The Bronx",
    "south_label": "Downtown & Brooklyn"
  },
  "627": {
    "borough": "Manhattan",
    "borough_code": "M",
    "lat": 40.77362,
    "lines": [
      "6"
    ],
    "lon": -73.959874,
    "name": "77 St",
    "north_label": "Uptown & The Bronx",
    "south_label": "Downtown"
  },
  "628": {
    "borough": "Manhattan",
    "borough_code": "M",
    "lat": 40.768141,
    "lines": [
      "6"
    ],
    "lon": -73.96387,
    "name": "68 St-Hunter College",
    "north_label": "Uptown & The Bronx",
    "south_label": "Downtown"
  },
  "629": {
    "borough": "Manhattan",
    "borough_code": "M",
    "lat": 40.762526,
    "lines": [
      "4",
      "5",
      "6"
    ],
    "lon": -73.967967,
    "name": "59 St",
    "north_label": "Uptown & The Bronx",
    "south_label": "Downtown & Brooklyn"
  },
  "630": {
    "borough": "Manhattan",
    "borough_code": "M",
    "lat": 40.757107,
    "lines": [
      "6"
    ],
    "lon": -73.97192,
    "name": "51 St",
    "north_label": "Uptown & The Bronx",
    "south_label": "Downtown"
  },
  "631": {
    "borough": "Manhattan",
    "borough_code": "M",
    "lat": 40.751776,
    "lines": [
      "4",
      "5",
      "6"
    ],
    "lon": -73.976848,
    "name": "Grand Central-42 St",
    "north_label": "Uptown & The Bronx",
    "south_label": "Downtown & Brooklyn"
  },
  "632": {
    "borough": "Manhattan",
    "borough_code": "M",
    "lat": 40.746081,
    "lines": [
      "6"
    ],
    "lon": -73.982076,
    "name": "33 St",
    "north_label": "Uptown & The Bronx",
    "south_label": "Downtown"
  },
  "633": {
    "borough": "Manhattan",
    "borough_code": "M",
    "lat": 40.74307,
    "lines": [
      "6"
    ],
    "lon": -73.984264,
    "name": "28 St",
    "north_label": "Uptown & The Bronx",
    "south_label": "Downtown"
  },
  "634": {
    "borough": "Manhattan",
    "borough_code": "M",
    "lat": 40.739864,
    "lines": [
      "6"
    ],
    "lon": -73.986599,
    "name": "23 St",
    "north_label": "Uptown & The Bronx",
    "south_label": "Downtown"
  },
  "635": {
    "borough": "Manhattan",
    "borough_code": "M",
    "lat": 40.734673,
    "lines": [
      "4",
      "5",
      "6"
    ],
    "lon": -73.989951,
    "name": "14 St-Union Sq",
    "north_label": "Uptown & The Bronx",
    "south_label": "Downtown & Brooklyn"
  },
  "636": {
    "borough": "Manhattan",
    "borough_code": "M",
    "lat": 40.730054,
    "lines": [
      "6"
    ],
    "lon": -73.99107,
    "name": "Astor Pl",
    "north_label": "Uptown & The Bronx",
    "south_label": "Downtown"
  },
  "637": {
    "borough": "Manhattan",
    "borough_code": "M",
    "lat": 40.725915,
    "lines": [
      "6"
    ],
    "lon": -73.994659,
    "name": "Bleecker St",
    "north_label": "Uptown & The Bronx",
    "south_label": "Downtown"
  },
  "638": {
    "borough": "Manhattan",
    "borough_code": "M",
    "lat": 40.722301,
    "lines": [
      "6"
    ],
    "lon": -73.997141,
    "name": "Spring St",
    "north_label": "Uptown & The Bronx",
    "south_label": "Downtown"
  },
  "639": {
    "borough": "Manhattan",
    "borough_code": "M",
    "lat": 40.718803,
    "lines": [
      "6"
    ],
    "lon": -74.000193,
    "name": "Canal St",
    "north_label": "Uptown & The Bronx",
    "south_label": "Downtown"
  },
  "640": {
    "borough": "Manhattan",
    "borough_code": "M",
    "lat": 40.713065,
    "lines": [
      "4",
      "5",
      "6"
    ],
    "lon": -74.004131,
    "name": "Brooklyn Bridge-City Hall",
    "north_label": "Uptown & The Bronx",
    "south_label": "Downtown & Brooklyn"
  },
  "701": {
    "borough": "Queens",
    "borough_code": "Q",
    "lat": 40.7596,
    "lines": [
      "7"
    ],
    "lon": -73.83003,
    "name": "Flushing-Main St",
    "north_label": null,
    "south_label": "Manhattan"
  },
  "702": {
    "borough": "Queens",
    "borough_code": "Q",
    "lat": 40.754622,
    "lines": [
      "7"
    ],
    "lon": -73.845625,
    "name": "Mets-Willets Point",
    "north_label": "Flushing",
    "south_label": "Manhattan"
  },
  "705": {
    "borough": "Queens",
    "borough_code": "Q",
    "lat": 40.75173,
    "lines": [
      "7"
    ],
    "lon": -73.855334,
    "name": "111 St",
    "north_label": "Flushing",
    "south_label": "Manhattan"
  },
  "706": {
    "borough": "Queens",
    "borough_code": "Q",
    "lat": 40.749865,
    "lines": [
      "7"
    ],
    "lon": -73.8627,
    "name": "103 St-Corona Plaza",
    "north_label": "Flushing",
    "south_label": "Manhattan"
  },
  "707": {
    "borough": "Queens",
    "borough_code": "Q",
    "lat": 40.749145,
    "lines": [
      "7"
    ],
    "lon": -73.869527,
    "name": "Junction Blvd",
    "north_label": "Flushing",
    "south_label": "Manhattan"
  },
  "708": {
    "borough": "Queens",
    "borough_code": "Q",
    "lat": 40.748408,
    "lines": [
      "7"
    ],
    "lon": -73.876613,
    "name": "90 St-Elmhurst Av",
    "north_label": "Flushing",
    "south_label": "Manhattan"
  },
  "709": {
    "borough": "Queens",
    "borough_code": "Q",
    "lat": 40.747659,
    "lines": [
      "7"
    ],
    "lon": -73.883697,
    "name": "82 St-Jackson Hts",
    "north_label": "Flushing",
    "south_label": "Manhattan"
  },
  "710": {
    "borough": "Queens",
    "borough_code": "Q",
    "lat": 40.746848,
    "lines": [
      "7"
    ],
    "lon": -73.891394,
    "name": "74 St-Broadway",
    "north_label": "Flushing",
    "south_label": "Manhattan"
  },
  "711": {
    "borough": "Queens",
    "borough_code": "Q",
    "lat": 40.746325,
    "lines": [
      "7"
    ],
    "lon": -73.896403,
    "name": "69 St",
    "north_label": "Flushing",
    "south_label": "Manhattan"
  },
  "712": {
    "borough": "Queens",
    "borough_code": "Q",
    "lat": 40.74563,
    "lines": [
      "7"
    ],
    "lon": -73.902984,
    "name": "61 St-Woodside",
    "north_label": "Flushing",
    "south_label": "Manhattan"
  },
  "713": {
    "borough": "Queens",
    "borough_code": "Q",
    "lat": 40.744149,
    "lines": [
      "7"
    ],
    "lon": -73.912549,
    "name": "52 St",
    "north_label": "Flushing",
    "south_label": "Manhattan"
  },
  "714": {
    "borough": "Queens",
    "borough_code": "Q",
    "lat": 40.743132,
    "lines": [
      "7"
    ],
    "lon": -73.918435,
    "name": "46 St-Bliss St",
    "north_label": "Flushing",
    "south_label": "Manhattan"
  },
  "715": {
    "borough": "Queens",
    "borough_code": "Q",
    "lat": 40.743781,
    "lines": [
      "7"
    ],
    "lon": -73.924016,
    "name": "40 St-Lowery St",
    "north_label": "Flushing",
    "south_label": "Manhattan"
  },
  "716": {
    "borough": "Queens",
    "borough_code": "Q",
    "lat": 40.744587,
    "lines": [
      "7"
    ],
    "lon": -73.930997,
    "name": "33 St-Rawson St",
    "north_label": "Flushing",
    "south_label": "Manhattan"
  },
  "718": {
    "borough": "Queens",
    "borough_code": "Q",
    "lat": 40.750582,
    "lines": [
      "7"
    ],
    "lon": -73.940202,
    "name": "Queensboro Plaza",
    "north_label": "Astoria - Flushing",
    "south_label": "Manhattan"
  },
  "719": {
    "borough": "Queens",
    "borough_code": "Q",
    "lat": 40.747023,
    "lines": [
      "7"
    ],
    "lon": -73.945264,
    "name": "Court Sq",
    "north_label": "Flushing",
    "south_label": "Manhattan"
  },
  "720": {
    "borough": "Queens",
    "borough_code": "Q",
    "lat": 40.742216,
    "lines": [
      "7"
    ],
    "lon": -73.948916,
    "name": "Hunters Point Av",
    "north_label": "Flushing",
    "south_label": "Manhattan"
  },
  "721": {
    "borough": "Queens",
    "borough_code": "Q",
    "lat": 40.742626,
    "lines": [
      "7"
    ],
    "lon": -73.953581,
    "name": "Vernon Blvd-Jackson Av",
    "north_label": "Flushing",
    "south_label": "Manhattan"
  },
  "723": {
    "borough": "Manhattan",
    "borough_code": "M",
    "lat": 40.751431,
    "lines": [
      "7"
    ],
    "lon": -73.976041,
    "name": "Grand Central-42 St",
    "north_label": "Queens",
    "south_label": "34 St - Hudson Yards"
  },
  "724": {
    "borough": "Manhattan",
    "borough_code": "M",
    "lat": 40.753821,
    "lines": [
      "7"
    ],
    "lon": -73.981963,
    "name": "5 Av",
    "north_label": "Queens",
    "south_label": "34 St - Hudson Yards"
  },
  "725": {
    "borough": "Manhattan",
    "borough_code": "M",
    "lat": 40.755477,
    "lines": [
      "7"
    ],
    "lon": -73.987691,
    "name": "Times Sq-42 St",
    "north_label": "Queens",
    "south_label": "34 St - Hudson Yards"
  },
  "726": {
    "borough": "Manhattan",
    "borough_code": "M",
    "lat": 40.755882,
    "lines": [
      "7"
    ],
    "lon": -74.00191,
    "name": "34 St-Hudson Yards",
    "north_label": "Queens",
    "south_label": null
  },
  "901": {
    "borough": "Manhattan",
    "borough_code": "M",
    "lat": 40.752769,
    "lines": [
      "S"
    ],
    "lon": -73.979189,
    "name": "Grand Central-42 St",
    "north_label": "Times Sq",
    "south_label": null
  },
  "902": {
    "borough": "Manhattan",
    "borough_code": "M",
    "lat": 40.755983,
    "lines": [
      "S"
    ],
    "lon": -73.986229,
    "name": "Times Sq-42 St",
    "north_label": null,
    "south_label": "Grand Central"
  },
  "A02": {
    "borough": "Manhattan",
    "borough_code": "M",
    "lat": 40.868072,
    "lines": [
      "A"
    ],
    "lon": -73.919899,
    "name": "Inwood-207 St",
    "north_label": null,
    "south_label": "Downtown & Brooklyn"
  },
  "A03": {
    "borough": "Manhattan",
    "borough_code": "M",
    "lat": 40.865491,
    "lines": [
      "A"
    ],
    "lon": -73.927271,
    "name": "Dyckman St",
    "north_label": "207 St",
    "south_label": "Downtown & Brooklyn"
  },
  "A05": {
    "borough": "Manhattan",
    "borough_code": "M",
    "lat": 40.859022,
    "lines": [
      "A"
    ],
    "lon": -73.93418,
    "name": "190 St",
    "north_label": "207 St",
    "south_label": "Downtown & Brooklyn"
  },
  "A06": {
    "borough": "Manhattan",
    "borough_code": "M",
    "lat": 40.851695,
    "lines": [
      "A"
    ],
    "lon": -73.937969,
    "name": "181 St",
    "north_label": "207 St",
    "south_label": "Downtown & Brooklyn"
  },
  "A07": {
    "borough": "Manhattan",
    "borough_code": "M",
    "lat": 40.847391,
    "lines": [
      "A"
    ],
    "lon": -73.939704,
    "name": "175 St",
    "north_label": "207 St",
    "south_label": "Downtown & Brooklyn"
  },
  "A09": {
    "borough": "Manhattan",
    "borough_code": "M",
    "lat": 40.840719,
    "lines": [
      "A",
      "C"
    ],
    "lon": -73.939561,
    "name": "168 St",
    "north_label": "207 St",
    "south_label": "Downtown & Brooklyn"
  },
  "A10": {
    "borough": "Manhattan",
    "borough_code": "M",
    "lat": 40.836013,
    "lines": [
      "C"
    ],
    "lon": -73.939892,
    "name": "163 St-Amsterdam Av",
    "north_label": "Uptown",
    "south_label": "Downtown & Brooklyn"
  },
  "A11": {
    "borough": "Manhattan",
    "borough_code": "M",
    "lat": 40.830518,
    "lines": [
      "C"
    ],
    "lon": -73.941514,
    "name": "155 St",
    "north_label": "Uptown",
    "south_label": "Downtown & Brooklyn"
  },
  "A12": {
    "borough": "Manhattan",
    "borough_code": "M",
    "lat": 40.824783,
    "lines": [
      "A",
      "C"
    ],
    "lon": -73.944216,
    "name": "145 St",
    "north_label": "Uptown & The Bronx",
    "south_label": "Downtown & Brooklyn"
  },
  "A14": {
    "borough": "Manhattan",
    "borough_code": "M",
    "lat": 40.817894,
    "lines": [
      "B",
      "C"
    ],
    "lon": -73.947649,
    "name": "135 St",
    "north_label": "Uptown & The Bronx",
    "south_label": "Downtown & Brooklyn"
  },
  "A15": {
    "borough": "Manhattan",
    "borough_code": "M",
    "lat": 40.811109,
    "lines": [
      "A",
      "C",
      "B",
      "D"
    ],
    "lon": -73.952343,
    "name": "125 St",
    "north_label": "Uptown & The Bronx",
    "south_label": "Downtown & Brooklyn"
  },
  "A16": {
    "borough": "Manhattan",
    "borough_code": "M",
    "lat": 40.805085,
    "lines": [
      "B",
      "C"
    ],
    "lon": -73.954882,
    "name": "116 St",
    "north_label": "Uptown & The Bronx",
    "south_label": "Downtown & Brooklyn"
  },
  "A17": {
    "borough": "Manhattan",
    "borough_code": "M",
    "lat": 40.800603,
    "lines": [
      "B",
      "C"
    ],
    "lon": -73.958161,
    "name": "Cathedral Pkwy (110 St)",
    "north_label": "Uptown & The Bronx",
    "south_label": "Downtown & Brooklyn"
  },
  "A18": {
    "borough": "Manhattan",
    "borough_code": "M",
    "lat": 40.796092,
    "lines": [
      "B",
      "C"
    ],
    "lon": -73.961454,
    "name": "103 St",
    "north_label": "Uptown & The Bronx",
    "south_label": "Downtown & Brooklyn"
  },
  "A19": {
    "borough": "Manhattan",
    "borough_code": "M",
    "lat": 40.791642,
    "lines": [
      "B",
      "C"
    ],
    "lon": -73.964696,
    "name": "96 St",
    "north_label": "Uptown & The Bronx",
    "south_label": "Downtown & Brooklyn"
  },
  "A20": {
    "borough": "Manhattan",
    "borough_code": "M",
    "lat": 40.785868,
    "lines": [
      "B",
      "C"
    ],
    "lon": -73.968916,
    "name": "86 St",
    "north_label": "Uptown & The Bronx",
    "south_label": "Downtown & Brooklyn"
  },
  "A21": {
    "borough": "Manhattan",
    "borough_code": "M",
    "lat": 40.781433,
    "lines": [
      "B",
      "C"
    ],
    "lon": -73.972143,
    "name": "81 St-Museum of Natural History",
    "north_label": "Uptown & The Bronx",
    "south_label": "Downtown & Brooklyn"
  },
  "A22": {
    "borough": "Manhattan",
    "borough_code": "M",
    "lat": 40.775594,
    "lines": [
      "B",
      "C"
    ],
    "lon": -73.97641,
    "name": "72 St",
    "north_label": "Uptown & The Bronx",
    "south_label": "Downtown & Brooklyn"
  },
  "A24": {
    "borough": "Manhattan",
    "borough_code": "M",
    "lat": 40.768296,
    "lines": [
      "A",
      "C",
      "B",
      "D"
    ],
    "lon": -73.981736,
    "name": "59 St-Columbus Circle",
    "north_label": "Uptown & The Bronx",
    "south_label": "Downtown & Brooklyn"
  },
  "A25": {
    "borough": "Manhattan",
    "borough_code": "M",
    "lat": 40.762456,
    "lines": [
      "C",
      "E"
    ],
    "lon": -73.985984,
    "name": "50 St",
    "north_label": "Uptown - Queens",
    "south_label": "Downtown & Brooklyn"
  },
  "A27": {
    "borough": "Manhattan",
    "borough_code": "M",
    "lat": 40.757308,
    "lines": [
      "A",
      "C",
      "E"
    ],
    "lon": -73.989735,
    "name": "42 St-Port Authority Bus Terminal",
    "north_label": "Uptown - Queens",
    "south_label": "Downtown & Brooklyn"
  },
  "A28": {
    "borough": "Manhattan",
    "borough_code": "M",
    "lat": 40.752287,
    "lines": [
      "A",
      "C",
      "E"
    ],
    "lon": -73.993391,
    "name": "34 St-Penn Station",
    "north_label": "Uptown - Queens",
    "south_label": "Downtown & Brooklyn"
  },
  "A30": {
    "borough": "Manhattan",
    "borough_code": "M",
    "lat": 40.745906,
    "lines": [
      "C",
      "E"
    ],
    "lon": -73.998041,
    "name": "23 St",
    "north_label": "Uptown - Queens",
    "south_label": "Downtown & Brooklyn"
  },
  "A31": {
    "borough": "Manhattan",
    "borough_code": "M",
    "lat": 40.740893,
    "lines": [
      "A",
      "C",
      "E"
    ],
    "lon": -74.00169,
    "name": "14 St",
    "north_label": "Uptown - Queens",
    "south_label": "Downtown & Brooklyn"
  },
  "A32": {
    "borough": "Manhattan",
    "borough_code": "M",
    "lat": 40.732338,
    "lines": [
      "A",
      "C",
      "E"
    ],
    "lon": -74.000495,
    "name": "W 4 St-Wash Sq",
    "north_label": "Uptown - Queens",
    "south_label": "Downtown & Brooklyn"
  },
  "A33": {
    "borough": "Manhattan",
    "borough_code": "M",
    "lat": 40.726227,
    "lines": [
      "C",
      "E"
    ],
    "lon": -74.003739,
    "name": "Spring St",
    "north_label": "Uptown - Queens",
    "south_label": "Downtown & Brooklyn"
  },
  "A34": {
    "borough": "Manhattan",
    "borough_code": "M",
    "lat": 40.720824,
    "lines": [
      "A",
      "C",
      "E"
    ],
    "lon": -74.005229,
    "name": "Canal St",
    "north_label": "Uptown - Queens",
    "south_label": "Downtown & Brooklyn"
  },
  "A36": {
    "borough": "Manhattan",
    "borough_code": "M",
    "lat": 40.714111,
    "lines": [
      "A",
      "C"
    ],
    "lon": -74.008585,
    "name": "Chambers St",
    "north_label": "Uptown",
    "south_label": "Downtown & Brooklyn"
  },
  "A38": {
    "borough": "Manhattan",
    "borough_code": "M",
    "lat": 40.710197,
    "lines": [
      "A",
      "C"
    ],
    "lon": -74.007691,
    "name": "Fulton St",
    "north_label": "Uptown",
    "south_label": "Brooklyn"
  },
  "A40": {
    "borough": "Brooklyn",
    "borough_code": "Bk",
    "lat": 40.699337,
    "lines": [
      "A",
      "C"
    ],
    "lon": -73.990531,
    "name": "High St",
    "north_label": "Manhattan",
    "south_label": "Euclid - Lefferts - Rockaways"
  },
  "A41": {
    "borough": "Brooklyn",
    "borough_code": "Bk",
    "lat": 40.692338,
    "lines": [
      "A",
      "C",
      "F"
    ],
    "lon": -73.987342,
    "name": "Jay St-MetroTech",
    "north_label": "Manhattan",
    "south_label": "Euclid - Lefferts - Rockaways - Coney Island"
  },
  "A42": {
    "borough": "Brooklyn",
    "borough_code": "Bk",
    "lat": 40.688484,
    "lines": [
      "A",
      "C",
      "G"
    ],
    "lon": -73.985001,
    "name": "Hoyt-Schermerhorn Sts",
    "north_label": "Manhattan - Church Av",
    "south_label": "Euclid Av & Queens - Court Sq"
  },
  "A43": {
    "borough": "Brooklyn",
    "borough_code": "Bk",
    "lat": 40.686113,
    "lines": [
      "C"
    ],
    "lon": -73.973946,
    "name": "Lafayette Av",
    "north_label": "Manhattan",
    "south_label": "Euclid Av"
  },
  "A44": {
    "borough": "Brooklyn",
    "borough_code": "Bk",
    "lat": 40.683263,
    "lines": [
      "C"
    ],
    "lon": -73.965838,
    "name": "Clinton-Washington Avs",
    "north_label": "Manhattan",
    "south_label": "Euclid Av"
  },
  "A45": {
    "borough": "Brooklyn",
    "borough_code": "Bk",
    "lat": 40.68138,
    "lines": [
      "C"
    ],
    "lon": -73.956848,
    "name": "Franklin Av",
    "north_label": "Manhattan",
    "south_label": "Euclid Av"
  },
  "A46": {
    "borough": "Brooklyn",
    "borough_code": "Bk",
    "lat": 40.680438,
    "lines": [
      "A",
      "C"
    ],
    "lon": -73.950426,
    "name": "Nostrand Av",
    "north_label": "Manhattan",
    "south_label": "Euclid - Lefferts - Rockaways"
  },
  "A47": {
    "borough": "Brooklyn",
    "borough_code": "Bk",
    "lat": 40.679921,
    "lines": [
      "C"
    ],
    "lon": -73.940858,
    "name": "Kingston-Throop Avs",
    "north_label": "Manhattan",
    "south_label": "Euclid Av"
  },
  "A48": {
    "borough": "Brooklyn",
    "borough_code": "Bk",
    "lat": 40.679364,
    "lines": [
      "A",
      "C"
    ],
    "lon": -73.930729,
    "name": "Utica Av",
    "north_label": "Manhattan",
    "south_label": "Euclid - Lefferts - Rockaways"
  },
  "A49": {
    "borough": "Brooklyn",
    "borough_code": "Bk",
    "lat": 40.678822,
    "lines": [
      "C"
    ],
    "lon": -73.920786,
    "name": "Ralph Av",
    "north_label": "Manhattan",
    "south_label": "Euclid Av"
  },
  "A50": {
    "borough": "Brooklyn",
    "borough_code": "Bk",
    "lat": 40.67834,
    "lines": [
      "C"
    ],
    "lon": -73.911946,
    "name": "Rockaway Av",
    "north_label": "Manhattan",
    "south_label": "Euclid Av"
  },
  "A51": {
    "borough": "Brooklyn",
    "borough_code": "Bk",
    "lat": 40.678334,
    "lines": [
      "A",
      "C"
    ],
    "lon": -73.905316,
    "name": "Broadway Junction",
    "north_label": "Manhattan",
    "south_label": "Euclid - Lefferts - Rockaways"
  },
  "A52": {
    "borough": "Brooklyn",
    "borough_code": "Bk",
    "lat": 40.674542,
    "lines": [
      "C"
    ],
    "lon": -73.896548,
    "name": "Liberty Av",
    "north_label": "Manhattan",
    "south_label": "Euclid Av"
  },
  "A53": {
    "borough": "Brooklyn",
    "borough_code": "Bk",
    "lat": 40.67271,
    "lines": [
      "C"
    ],
    "lon": -73.890358,
    "name": "Van Siclen Av",
    "north_label": "Manhattan",
    "south_label": "Euclid Av"
  },
  "A54": {
    "borough": "Brooklyn",
    "borough_code": "Bk",
    "lat": 40.67413,
    "lines": [
      "C"
    ],
    "lon": -73.88075,
    "name": "Shepherd Av",
    "north_label": "Manhattan",
    "south_label": "Euclid Av"
  },
  "A55": {
    "borough": "Brooklyn",
    "borough_code": "Bk",
    "lat": 40.675377,
    "lines": [
      "A",
      "C"
    ],
    "lon": -73.872106,
    "name": "Euclid Av",
    "north_label": "Manhattan",
    "south_label": "Lefferts - Rockaways"
  },
  "A57": {
    "borough": "Brooklyn",
    "borough_code": "Bk",
    "lat": 40.677044,
    "lines": [
      "A"
    ],
    "lon": -73.86505,
    "name": "Grant Av",
    "north_label": "Manhattan",
    "south_label": "Lefferts - Rockaways"
  },
  "A59": {
    "borough": "Queens",
    "borough_code": "Q",
    "lat": 40.679371,
    "lines": [
      "A"
    ],
    "lon": -73.858992,
    "name": "80 St",
    "north_label": "Manhattan",
    "south_label": "Lefferts - Rockaways"
  },
  "A60": {
    "borough": "Queens",
    "borough_code": "Q",
    "lat": 40.679843,
    "lines": [
      "A"
    ],
    "lon": -73.85147,
    "name": "88 St",
    "north_label": "Manhattan",
    "south_label": "Lefferts - Rockaways"
  },
  "A61": {
    "borough": "Queens",
    "borough_code": "Q",
    "lat": 40.680429,
    "lines": [
      "A"
    ],
    "lon": -73.843853,
    "name": "Rockaway Blvd",
    "north_label": "Manhattan",
    "south_label": "Lefferts - Rockaways"
  },
  "A63": {
    "borough": "Queens",
    "borough_code": "Q",
    "lat": 40.681711,
    "lines": [
      "A"
    ],
    "lon": -73.837683,
    "name": "104 St",
    "north_label": "Manhattan",
    "south_label": "Lefferts Blvd"
  },
  "A64": {
    "borough": "Queens",
    "borough_code": "Q",
    "lat": 40.684331,
    "lines": [
      "A"
    ],
    "lon": -73.832163,
    "name": "111 St",
    "north_label": "Manhattan",
    "south_label": "Lefferts Blvd"
  },
  "A65": {
    "borough": "Queens",
    "borough_code": "Q",
    "lat": 40.685951,
    "lines": [
      "A"
    ],
    "lon": -73.825798,
    "name": "Ozone Park-Lefferts Blvd",
    "north_label": "Manhattan",
    "south_label": null
  },
  "B04": {
    "borough": "Queens",
    "borough_code": "Q",
    "lat": 40.754203,
    "lines": [
      "M"
    ],
    "lon": -73.942836,
    "name": "21 St-Queensbridge",
    "north_label": "Jamaica",
    "south_label": "Manhattan"
  },
  "B06": {
    "borough": "Manhattan",
    "borough_code": "M",
    "lat": 40.759145,
    "lines": [
      "M"
    ],
    "lon": -73.95326,
    "name": "Roosevelt Island",
    "north_label": "Queens",
    "south_label": "Manhattan"
  },
  "B08": {
    "borough": "Manhattan",
    "borough_code": "M",
    "lat": 40.764629,
    "lines": [
      "M",
      "Q"
    ],
    "lon": -73.966113,
    "name": "Lexington Av/63 St",
    "north_label": "Uptown - Queens",
    "south_label": "Downtown & Brooklyn"
  },
  "B10": {
    "borough": "Manhattan",
    "borough_code": "M",
    "lat": 40.763972,
    "lines": [
      "M"
    ],
    "lon": -73.97745,
    "name": "57 St",
    "north_label": "Uptown & Queens",
    "south_label": "Downtown & Brooklyn"
  },
  "B12": {
    "borough": "Brooklyn",
    "borough_code": "Bk",
    "lat": 40.646292,
    "lines": [
      "D"
    ],
    "lon": -73.994324,
    "name": "9 Av",
    "north_label": "Manhattan",
    "south_label": "Coney Island"
  },
  "B13": {
    "borough": "Brooklyn",
    "borough_code": "Bk",
    "lat": 40.640914,
    "lines": [
      "D"
    ],
    "lon": -73.994304,
    "name": "Fort Hamilton Pkwy",
    "north_label": "Manhattan",
    "south_label": "Coney Island"
  },
  "B14": {
    "borough": "Brooklyn",
    "borough_code": "Bk",
    "lat": 40.63626,
    "lines": [
      "D"
    ],
    "lon": -73.994791,
    "name": "50 St",
    "north_label": "Manhattan",
    "south_label": "Coney Island"
  },
  "B15": {
    "borough": "Brooklyn",
    "borough_code": "Bk",
    "lat": 40.631435,
    "lines": [
      "D"
    ],
    "lon": -73.995476,
    "name": "55 St",
    "north_label": "Manhattan",
    "south_label": "Coney Island"
  },
  "B16": {
    "borough": "Brooklyn",
    "borough_code": "Bk",
    "lat": 40.626472,
    "lines": [
      "D"
    ],
    "lon": -73.996895,
    "name": "62 St",
    "north_label": "Manhattan",
    "south_label": "Coney Island"
  },
  "B17": {
    "borough": "Brooklyn",
    "borough_code": "Bk",
    "lat": 40.619589,
    "lines": [
      "D"
    ],
    "lon": -73.998864,
    "name": "71 St",
    "north_label": "Manhattan",
    "south_label": "Coney Island"
  },
  "B18": {
    "borough": "Brooklyn",
    "borough_code": "Bk",
    "lat": 40.613501,
    "lines": [
      "D"
    ],
    "lon": -74.00061,
    "name": "79 St",
    "north_label": "Manhattan",
    "south_label": "Coney Island"
  },
  "B19": {
    "borough": "Brooklyn",
    "borough_code": "Bk",
    "lat": 40.607954,
    "lines": [
      "D"
    ],
    "lon": -74.001736,
    "name": "18 Av",
    "north_label": "Manhattan",
    "south_label": "Coney Island"
  },
  "B20": {
    "borough": "Brooklyn",
    "borough_code": "Bk",
    "lat": 40.604556,
    "lines": [
      "D"
    ],
    "lon": -73.998168,
    "name": "20 Av",
    "north_label": "Manhattan",
    "south_label": "Coney Island"
  },
  "B21": {
    "borough": "Brooklyn",
    "borough_code": "Bk",
    "lat": 40.601875,
    "lines": [
      "D"
    ],
    "lon": -73.993728,
    "name": "Bay Pkwy",
    "north_label": "Manhattan",
    "south_label": "Coney Island"
  },
  "B22": {
    "borough": "Brooklyn",
    "borough_code": "Bk",
    "lat": 40.597704,
    "lines": [
      "D"
    ],
    "lon": -73.986829,
    "name": "25 Av",
    "north_label": "Manhattan",
    "south_label": "Coney Island"
  },
  "B23": {
    "borough": "Brooklyn",
    "borough_code": "Bk",
    "lat": 40.588841,
    "lines": [
      "D"
    ],
    "lon": -73.983765,
    "name": "Bay 50 St",
    "north_label": "Manhattan",
    "south_label": "Coney Island"
  },
  "D01": {
    "borough": "Bronx",
    "borough_code": "Bx",
    "lat": 40.874811,
    "lines": [
      "D"
    ],
    "lon": -73.878855,
    "name": "Norwood-205 St",
    "north_label": null,
    "south_label": "Manhattan"
  },
  "D03": {
    "borough": "Bronx",
    "borough_code": "Bx",
    "lat": 40.873244,
    "lines": [
      "B",
      "D"
    ],
    "lon": -73.887138,
    "name": "Bedford Park Blvd",
    "north_label": "Norwood - 205 St",
    "south_label": "Manhattan"
  },
  "D04": {
    "borough": "Bronx",
    "borough_code": "Bx",
    "lat": 40.866978,
    "lines": [
      "B",
      "D"
    ],
    "lon": -73.893509,
    "name": "Kingsbridge Rd",
    "north_label": "Bedford Pk Blvd & 205 St",
    "south_label": "Manhattan"
  },
  "D05": {
    "borough": "Bronx",
    "borough_code": "Bx",
    "lat": 40.861296,
    "lines": [
      "B",
      "D"
    ],
    "lon": -73.897749,
    "name": "Fordham Rd",
    "north_label": "Bedford Pk Blvd & 205 St",
    "south_label": "Manhattan"
  },
  "D06": {
    "borough": "Bronx",
    "borough_code": "Bx",
    "lat": 40.856093,
    "lines": [
      "B",
      "D"
    ],
    "lon": -73.900741,
    "name": "182-183 Sts",
    "north_label": "Bedford Pk Blvd & 205 St",
    "south_label": "Manhattan"
  },
  "D07": {
    "borough": "Bronx",
    "borough_code": "Bx",
    "lat": 40.85041,
    "lines": [
      "B",
      "D"
    ],
    "lon": -73.905227,
    "name": "Tremont Av",
    "north_label": "Bedford Pk Blvd & 205 St",
    "south_label": "Manhattan"
  },
  "D08": {
    "borough": "Bronx",
    "borough_code": "Bx",
    "lat": 40.8459,
    "lines": [
      "B",
      "D"
    ],
    "lon": -73.910136,
    "name": "174-175 Sts",
    "north_label": "Bedford Pk Blvd & 205 St",
    "south_label": "Manhattan"
  },
  "D09": {
    "borough": "Bronx",
    "borough_code": "Bx",
    "lat": 40.839306,
    "lines": [
      "B",
      "D"
    ],
    "lon": -73.9134,
    "name": "170 St",
    "north_label": "Bedford Pk Blvd & 205 St",
    "south_label": "Manhattan"
  },
  "D10": {
    "borough": "Bronx",
    "borough_code": "Bx",
    "lat": 40.833771,
    "lines": [
      "B",
      "D"
    ],
    "lon": -73.91844,
    "name": "167 St",
    "north_label": "Bedford Pk Blvd & 205 St",
    "south_label": "Manhattan"
  },
  "D11": {
    "borough": "Bronx",
    "borough_code": "Bx",
    "lat": 40.827905,
    "lines": [
      "B",
      "D"
    ],
    "lon": -73.925651,
    "name": "161 St-Yankee Stadium",
    "north_label": "Bedford Pk Blvd & 205 St",
    "south_label": "Manhattan"
  },
  "D12": {
    "borough": "Manhattan",
    "borough_code": "M",
    "lat": 40.830135,
    "lines": [
      "B",
      "D"
    ],
    "lon": -73.938209,
    "name": "155 St",
    "north_label": "The Bronx",
    "south_label": "Downtown & Brooklyn"
  },
  "D13": {
    "borough": "Manhattan",
    "borough_code": "M",
    "lat": 40.824783,
    "lines": [
      "B",
      "D"
    ],
    "lon": -73.944216,
    "name": "145 St",
    "north_label": "Uptown & The Bronx",
    "south_label": "Downtown & Brooklyn"
  },
  "D14": {
    "borough": "Manhattan",
    "borough_code": "M",
    "lat": 40.762862,
    "lines": [
      "B",
      "D",
      "E"
    ],
    "lon": -73.981637,
    "name": "7 Av",
    "north_label": "Uptown & The Bronx - Queens",
    "south_label": "Downtown & Brooklyn"
  },
  "D15": {
    "borough": "Manhattan",
    "borough_code": "M",
    "lat": 40.758663,
    "lines": [
      "B",
      "D",
      "F",
      "M"
    ],
    "lon": -73.981329,
    "name": "47-50 Sts-Rockefeller Ctr",
    "north_label": "Uptown & The Bronx - Queens",
    "south_label": "Downtown & Brooklyn"
  },
  "D16": {
    "borough": "Manhattan",
    "borough_code": "M",
    "lat": 40.754222,
    "lines": [
      "B",
      "D",
      "F",
      "M"
    ],
    "lon": -73.984569,
    "name": "42 St-Bryant Pk",
    "north_label": "Uptown & The Bronx - Queens",
    "south_label": "Downtown & Brooklyn"
  },
  "D17": {
    "borough": "Manhattan",
    "borough_code": "M",
    "lat": 40.749719,
    "lines": [
      "B",
      "D",
      "F",
      "M"
    ],
    "lon": -73.987823,
    "name": "34 St-Herald Sq",
    "north_label": "Uptown & The Bronx - Queens",
    "south_label": "Downtown & Brooklyn"
  },
  "D18": {
    "borough": "Manhattan",
    "borough_code": "M",
    "lat": 40.742878,
    "lines": [
      "F",
      "M"
    ],
    "lon": -73.992821,
    "name": "23 St",
    "north_label": "Uptown & Queens",
    "south_label": "Downtown & Brooklyn"
  },
  "D19": {
    "borough": "Manhattan",
    "borough_code": "M",
    "lat": 40.738228,
    "lines": [
      "F",
      "M"
    ],
    "lon": -73.996209,
    "name": "14 St",
    "north_label": "Uptown & Queens",
    "south_label": "Downtown & Brooklyn"
  },
  "D20": {
    "borough": "Manhattan",
    "borough_code": "M",
    "lat": 40.732338,
    "lines": [
      "B",
      "D",
      "F",
      "M"
    ],
    "lon": -74.000495,
    "name": "W 4 St-Wash Sq",
    "north_label": "Uptown - Queens",
    "south_label": "Downtown & Brooklyn"
  },
  "D21": {
    "borough": "Manhattan",
    "borough_code": "M",
    "lat": 40.725297,
    "lines": [
      "B",
      "D",
      "F",
      "M"
    ],
    "lon": -73.996204,
    "name": "Broadway-Lafayette St",
    "north_label": "Uptown & The Bronx - Queens",
    "south_label": "Downtown & Brooklyn"
  },
  "D22": {
    "borough": "Manhattan",
    "borough_code": "M",
    "lat": 40.718267,
    "lines": [
      "B",
      "D"
    ],
    "lon": -73.993753,
    "name": "Grand St",
    "north_label": "Uptown & The Bronx",
    "south_label": "Brooklyn"
  },
  "D24": {
    "borough": "Brooklyn",
    "borough_code": "Bk",
    "lat": 40.68446,
    "lines": [
      "B",
      "Q"
    ],
    "lon": -73.97689,
    "name": "Atlantic Av-Barclays Ctr",
    "north_label": "Manhattan",
    "south_label": "Brighton Beach & Coney Island"
  },
  "D25": {
    "borough": "Brooklyn",
    "borough_code": "Bk",
    "lat": 40.67705,
    "lines": [
      "B",
      "Q"
    ],
    "lon": -73.972367,
    "name": "7 Av",
    "north_label": "Manhattan",
    "south_label": "Brighton Beach & Coney Island"
  },
  "D26": {
    "borough": "Brooklyn",
    "borough_code": "Bk",
    "lat": 40.661614,
    "lines": [
      "B",
      "Q",
      "S"
    ],
    "lon": -73.962246,
    "name": "Prospect Park",
    "north_label": "Manhattan & Franklin Av",
    "south_label": "Brighton Beach & Coney Island"
  },
  "D27": {
    "borough": "Brooklyn",
    "borough_code": "Bk",
    "lat": 40.655292,
    "lines": [
      "Q"
    ],
    "lon": -73.961495,
    "name": "Parkside Av",
    "north_label": "Manhattan",
    "south_label": "Brighton Beach & Coney Island"
  },
  "D28": {
    "borough": "Brooklyn",
    "borough_code": "Bk",
    "lat": 40.650527,
    "lines": [
      "B",
      "Q"
    ],
    "lon": -73.962982,
    "name": "Church Av",
    "north_label": "Manhattan",
    "south_label": "Brighton Beach & Coney Island"
  },
  "D29": {
    "borough": "Brooklyn",
    "borough_code": "Bk",
    "lat": 40.644031,
    "lines": [
      "Q"
    ],
    "lon": -73.964492,
    "name": "Beverley Rd",
    "north_label": "Manhattan",
    "south_label": "Brighton Beach & Coney Island"
  },
  "D30": {
    "borough": "Brooklyn",
    "borough_code": "Bk",
    "lat": 40.640927,
    "lines": [
      "Q"
    ],
    "lon": -73.963891,
    "name": "Cortelyou Rd",
    "north_label": "Manhattan",
    "south_label": "Brighton Beach & Coney Island"
  },
  "D31": {
    "borough": "Brooklyn",
    "borough_code": "Bk",
    "lat": 40.635082,
    "lines": [
      "B",
      "Q"
    ],
    "lon": -73.962793,
    "name": "Newkirk Plaza",
    "north_label": "Manhattan",
    "south_label": "Brighton Beach & Coney Island"
  },
  "D32": {
    "borough": "Brooklyn",
    "borough_code": "Bk",
    "lat": 40.62927,
    "lines": [
      "Q"
    ],
    "lon": -73.961639,
    "name": "Avenue H",
    "north_label": "Manhattan",
    "south_label": "Brighton Beach & Coney Island"
  },
  "D33": {
    "borough": "Brooklyn",
    "borough_code": "Bk",
    "lat": 40.625039,
    "lines": [
      "Q"
    ],
    "lon": -73.960803,
    "name": "Avenue J",
    "north_label": "Manhattan",
    "south_label": "Brighton Beach & Coney Island"
  },
  "D34": {
    "borough": "Brooklyn",
    "borough_code": "Bk",
    "lat": 40.617618,
    "lines": [
      "Q"
    ],
    "lon": -73.959399,
    "name": "Avenue M",
    "north_label": "Manhattan",
    "south_label": "Brighton Beach & Coney Island"
  },
  "D35": {
    "borough": "Brooklyn",
    "borough_code": "Bk",
    "lat": 40.60867,
    "lines": [
      "B",
      "Q"
    ],
    "lon": -73.957734,
    "name": "Kings Hwy",
    "north_label": "Manhattan",
    "south_label": "Brighton Beach & Coney Island"
  },
  "D37": {
    "borough": "Brooklyn",
    "borough_code": "Bk",
    "lat": 40.5993,
    "lines": [
      "Q"
    ],
    "lon": -73.955929,
    "name": "Avenue U",
    "north_label": "Manhattan",
    "south_label": "Brighton Beach & Coney Island"
  },
  "D38": {
    "borough": "Brooklyn",
    "borough_code": "Bk",
    "lat": 40.595246,
    "lines": [
      "Q"
    ],
    "lon": -73.955161,
    "name": "Neck Rd",
    "north_label": "Manhattan",
    "south_label": "Brighton Beach & Coney Island"
  },
  "D39": {
    "borough": "Brooklyn",
    "borough_code": "Bk",
    "lat": 40.586896,
    "lines": [
      "B",
      "Q"
    ],
    "lon": -73.954155,
    "name": "Sheepshead Bay",
    "north_label": "Manhattan",
    "south_label": "Brighton Beach & Coney Island"
  },
  "D40": {
    "borough": "Brooklyn",
    "borough_code": "Bk",
    "lat": 40.577621,
    "lines": [
      "B",
      "Q"
    ],
    "lon": -73.961376,
    "name": "Brighton Beach",
    "north_label": "Manhattan",
    "south_label": "Coney Island"
  },
  "D41": {
    "borough": "Brooklyn",
    "borough_code": "Bk",
    "lat": 40.576312,
    "lines": [
      "Q"
    ],
    "lon": -73.968501,
    "name": "Ocean Pkwy",
    "north_label": "Manhattan",
    "south_label": "Stillwell Av"
  },
  "D42": {
    "borough": "Brooklyn",
    "borough_code": "Bk",
    "lat": 40.576127,
    "lines": [
      "F",
      "Q"
    ],
    "lon": -73.975939,
    "name": "W 8 St-NY Aquarium",
    "north_label": "Manhattan",
    "south_label": "Stillwell Av"
  },
  "D43": {
    "borough": "Brooklyn",
    "borough_code": "Bk",
    "lat": 40.577422,
    "lines": [
      "D",
      "F",
      "N",
      "Q"
    ],
    "lon": -73.981233,
    "name": "Coney Island-Stillwell Av",
    "north_label": "Manhattan",
    "south_label": null
  },
  "E01": {
    "borough": "Manhattan",
    "borough_code": "M",
    "lat": 40.712582,
    "lines": [
      "E"
    ],
    "lon": -74.009781,
    "name": "World Trade Center",
    "north_label": "Uptown & Queens",
    "south_label": null
  },
  "F01": {
    "borough": "Queens",
    "borough_code": "Q",
    "lat": 40.712646,
    "lines": [
      "F"
    ],
    "lon": -73.783817,
    "name": "Jamaica-179 St",
    "north_label": null,
    "south_label": "Manhattan"
  },
  "F02": {
    "borough": "Queens",
    "borough_code": "Q",
    "lat": 40.71047,
    "lines": [
      "F"
    ],
    "lon": -73.793604,
    "name": "169 St",
    "north_label": "179 St",
    "south_label": "Manhattan"
  },
  "F03": {
    "borough": "Queens",
    "borough_code": "Q",
    "lat": 40.707564,
    "lines": [
      "F"
    ],
    "lon": -73.803326,
    "name": "Parsons Blvd",
    "north_label": "179 St",
    "south_label": "Manhattan"
  },
  "F04": {
    "borough": "Queens",
    "borough_code": "Q",
    "lat": 40.70546,
    "lines": [
      "F"
    ],
    "lon": -73.810708,
    "name": "Sutphin Blvd",
    "north_label": "179 St",
    "south_label": "Manhattan"
  },
  "F05": {
    "borough": "Queens",
    "borough_code": "Q",
    "lat": 40.709179,
    "lines": [
      "E",
      "F"
    ],
    "lon": -73.820574,
    "name": "Briarwood",
    "north_label": "Jamaica",
    "south_label": "Manhattan"
  },
  "F06": {
    "borough": "Queens",
    "borough_code": "Q",
    "lat": 40.714441,
    "lines": [
      "E",
      "F"
    ],
    "lon": -73.831008,
    "name": "Kew Gardens-Union Tpke",
    "north_label": "Jamaica",
    "south_label": "Manhattan"
  },
  "F07": {
    "borough": "Queens",
    "borough_code": "Q",
    "lat": 40.718331,
    "lines": [
      "E",
      "F"
    ],
    "lon": -73.837324,
    "name": "75 Av",
    "north_label": "Jamaica",
    "south_label": "Manhattan"
  },
  "F09": {
    "borough": "Queens",
    "borough_code": "Q",
    "lat": 40.747846,
    "lines": [
      "E",
      "F"
    ],
    "lon": -73.946,
    "name": "Court Sq-23 St",
    "north_label": "Forest Hills - Jamaica",
    "south_label": "Manhattan"
  },
  "F11": {
    "borough": "Manhattan",
    "borough_code": "M",
    "lat": 40.757552,
    "lines": [
      "E",
      "F"
    ],
    "lon": -73.969055,
    "name": "Lexington Av/53 St",
    "north_label": "Queens",
    "south_label": "Downtown & Brooklyn"
  },
  "F12": {
    "borough": "Manhattan",
    "borough_code": "M",
    "lat": 40.760167,
    "lines": [
      "E",
      "F"
    ],
    "lon": -73.975224,
    "name": "5 Av/53 St",
    "north_label": "Queens",
    "south_label": "Downtown & Brooklyn"
  },
  "F14": {
    "borough": "Manhattan",
    "borough_code": "M",
    "lat": 40.723402,
    "lines": [
      "F"
    ],
    "lon": -73.989938,
    "name": "2 Av",
    "north_label": "Uptown & Queens",
    "south_label": "Downtown & Brooklyn"
  },
  "F15": {
    "borough": "Manhattan",
    "borough_code": "M",
    "lat": 40.718611,
    "lines": [
      "F"
    ],
    "lon": -73.988114,
    "name": "Delancey St-Essex St",
    "north_label": "Uptown & Queens",
    "south_label": "Downtown & Brooklyn"
  },
  "F16": {
    "borough": "Manhattan",
    "borough_code": "M",
    "lat": 40.713715,
    "lines": [
      "F"
    ],
    "lon": -73.990173,
    "name": "East Broadway",
    "north_label": "Uptown & Queens",
    "south_label": "Brooklyn"
  },
  "F18": {
    "borough": "Brooklyn",
    "borough_code": "Bk",
    "lat": 40.701397,
    "lines": [
      "F"
    ],
    "lon": -73.986751,
    "name": "York St",
    "north_label": "Manhattan",
    "south_label": "Coney Island"
  },
  "F20": {
    "borough": "Brooklyn",
    "borough_code": "Bk",
    "lat": 40.686145,
    "lines": [
      "F",
      "G"
    ],
    "lon": -73.990862,
    "name": "Bergen St",
    "north_label": "Manhattan - Queens",
    "south_label": "Church Av - Coney Island"
  },
  "F21": {
    "borough": "Brooklyn",
    "borough_code": "Bk",
    "lat": 40.680303,
    "lines": [
      "F",
      "G"
    ],
    "lon": -73.995048,
    "name": "Carroll St",
    "north_label": "Manhattan - Queens",
    "south_label": "Church Av - Coney Island"
  },
  "F22": {
    "borough": "Brooklyn",
    "borough_code": "Bk",
    "lat": 40.67358,
    "lines": [
      "F",
      "G"
    ],
    "lon": -73.995959,
    "name": "Smith-9 Sts",
    "north_label": "Manhattan - Queens",
    "south_label": "Church Av - Coney Island"
  },
  "F23": {
    "borough": "Brooklyn",
    "borough_code": "Bk",
    "lat": 40.670272,
    "lines": [
      "F",
      "G"
    ],
    "lon": -73.989779,
    "name": "4 Av-9 St",
    "north_label": "Manhattan - Queens",
    "south_label": "Church Av - Coney Island"
  },
  "F24": {
    "borough": "Brooklyn",
    "borough_code": "Bk",
    "lat": 40.666271,
    "lines": [
      "F",
      "G"
    ],
    "lon": -73.980305,
    "name": "7 Av",
    "north_label": "Manhattan - Queens",
    "south_label": "Church Av - Coney Island"
  },
  "F25": {
    "borough": "Brooklyn",
    "borough_code": "Bk",
    "lat": 40.660365,
    "lines": [
      "F",
      "G"
    ],
    "lon": -73.979493,
    "name": "15 St-Prospect Park",
    "north_label": "Manhattan - Queens",
    "south_label": "Church Av - Coney Island"
  },
  "F26": {
    "borough": "Brooklyn",
    "borough_code": "Bk",
    "lat": 40.650782,
    "lines": [
      "F",
      "G"
    ],
    "lon": -73.975776,
    "name": "Fort Hamilton Pkwy",
    "north_label": "Manhattan - Queens",
    "south_label": "Church Av - Coney Island"
  },
  "F27": {
    "borough": "Brooklyn",
    "borough_code": "Bk",
    "lat": 40.644041,
    "lines": [
      "F",
      "G"
    ],
    "lon": -73.979678,
    "name": "Church Av",
    "north_label": "Manhattan",
    "south_label": "Coney Island"
  },
  "F29": {
    "borough": "Brooklyn",
    "borough_code": "Bk",
    "lat": 40.636119,
    "lines": [
      "F"
    ],
    "lon": -73.978172,
    "name": "Ditmas Av",
    "north_label": "Manhattan",
    "south_label": "Coney Island"
  },
  "F30": {
    "borough": "Brooklyn",
    "borough_code": "Bk",
    "lat": 40.629755,
    "lines": [
      "F"
    ],
    "lon": -73.976971,
    "name": "18 Av",
    "north_label": "Manhattan",
    "south_label": "Coney Island"
  },
  "F31": {
    "borough": "Brooklyn",
    "borough_code": "Bk",
    "lat": 40.625322,
    "lines": [
      "F"
    ],
    "lon": -73.976127,
    "name": "Avenue I",
    "north_label": "Manhattan",
    "south_label": "Coney Island"
  },
  "F32": {
    "borough": "Brooklyn",
    "borough_code": "Bk",
    "lat": 40.620769,
    "lines": [
      "F"
    ],
    "lon": -73.975264,
    "name": "Bay Pkwy",
    "north_label": "Manhattan",
    "south_label": "Coney Island"
  },
  "F33": {
    "borough": "Brooklyn",
    "borough_code": "Bk",
    "lat": 40.61514,
    "lines": [
      "F"
    ],
    "lon": -73.974197,
    "name": "Avenue N",
    "north_label": "Manhattan",
    "south_label": "Coney Island"
  },
  "F34": {
    "borough": "Brooklyn",
    "borough_code": "Bk",
    "lat": 40.608944,
    "lines": [
      "F"
    ],
    "lon": -73.973022,
    "name": "Avenue P",
    "north_label": "Manhattan",
    "south_label": "Coney Island"
  },
  "F35": {
    "borough": "Brooklyn",
    "borough_code": "Bk",
    "lat": 40.603217,
    "lines": [
      "F"
    ],
    "lon": -73.972361,
    "name": "Kings Hwy",
    "north_label": "Manhattan",
    "south_label": "Coney Island"
  },
  "F36": {
    "borough": "Brooklyn",
    "borough_code": "Bk",
    "lat": 40.596063,
    "lines": [
      "F"
    ],
    "lon": -73.973357,
    "name": "Avenue U",
    "north_label": "Manhattan",
    "south_label": "Coney Island"
  },
  "F38": {
    "borough": "Brooklyn",
    "borough_code": "Bk",
    "lat": 40.58962,
    "lines": [
      "F"
    ],
    "lon": -73.97425,
    "name": "Avenue X",
    "north_label": "Manhattan",
    "south_label": "Coney Island"
  },
  "F39": {
    "borough": "Brooklyn",
    "borough_code": "Bk",
    "lat": 40.581011,
    "lines": [
      "F"
    ],
    "lon": -73.974574,
    "name": "Neptune Av",
    "north_label": "Manhattan",
    "south_label": "Stillwell Av"
  },
  "G05": {
    "borough": "Queens",
    "borough_code": "Q",
    "lat": 40.702147,
    "lines": [
      "E",
      "J",
      "Z"
    ],
    "lon": -73.801109,
    "name": "Jamaica Center-Parsons/Archer",
    "north_label": null,
    "south_label": "Manhattan"
  },
  "G06": {
    "borough": "Queens",
    "borough_code": "Q",
    "lat": 40.700486,
    "lines": [
      "E",
      "J",
      "Z"
    ],
    "lon": -73.807969,
    "name": "Sutphin Blvd-Archer Av-JFK Airport",
    "north_label": "Jamaica Center",
    "south_label": "Manhattan"
  },
  "G07": {
    "borough": "Queens",
    "borough_code": "Q",
    "lat": 40.702566,
    "lines": [
      "E"
    ],
    "lon": -73.816859,
    "name": "Jamaica-Van Wyck",
    "north_label": "Jamaica Center",
    "south_label": "Manhattan"
  },
  "G08": {
    "borough": "Queens",
    "borough_code": "Q",
    "lat": 40.721691,
    "lines": [
      "E",
      "F",
      "M",
      "R"
    ],
    "lon": -73.844521,
    "name": "Forest Hills-71 Av",
    "north_label": "Jamaica",
    "south_label": "Manhattan"
  },
  "G09": {
    "borough": "Queens",
    "borough_code": "Q",
    "lat": 40.726523,
    "lines": [
      "M",
      "R"
    ],
    "lon": -73.852719,
    "name": "67 Av",
    "north_label": "Forest Hills",
    "south_label": "Manhattan"
  },
  "G10": {
    "borough": "Queens",
    "borough_code": "Q",
    "lat": 40.729846,
    "lines": [
      "M",
      "R"
    ],
    "lon": -73.861604,
    "name": "63 Dr-Rego Park",
    "north_label": "Forest Hills",
    "south_label": "Manhattan"
  },
  "G11": {
    "borough": "Queens",
    "borough_code": "Q",
    "lat": 40.733106,
    "lines": [
      "M",
      "R"
    ],
    "lon": -73.869229,
    "name": "Woodhaven Blvd",
    "north_label": "Forest Hills",
    "south_label": "Manhattan"
  },
  "G12": {
    "borough": "Queens",
    "borough_code": "Q",
    "lat": 40.737015,
    "lines": [
      "M",
      "R"
    ],
    "lon": -73.877223,
    "name": "Grand Av-Newtown",
    "north_label": "Forest Hills",
    "south_label": "Manhattan"
  },
  "G13": {
    "borough": "Queens",
    "borough_code": "Q",
    "lat": 40.742454,
    "lines": [
      "M",
      "R"
    ],
    "lon": -73.882017,
    "name": "Elmhurst Av",
    "north_label": "Forest Hills",
    "south_label": "Manhattan"
  },
  "G14": {
    "borough": "Queens",
    "borough_code": "Q",
    "lat": 40.746644,
    "lines": [
      "E",
      "F",
      "M",
      "R"
    ],
    "lon": -73.891338,
    "name": "Jackson Hts-Roosevelt Av",
    "north_label": "Forest Hills - Jamaica",
    "south_label": "Manhattan"
  },
  "G15": {
    "borough": "Queens",
    "borough_code": "Q",
    "lat": 40.749669,
    "lines": [
      "M",
      "R"
    ],
    "lon": -73.898453,
    "name": "65 St",
    "north_label": "Forest Hills",
    "south_label": "Manhattan"
  },
  "G16": {
    "borough": "Queens",
    "borough_code": "Q",
    "lat": 40.752885,
    "lines": [
      "M",
      "R"
    ],
    "lon": -73.906006,
    "name": "Northern Blvd",
    "north_label": "Forest Hills",
    "south_label": "Manhattan"
  },
  "G18": {
    "borough": "Queens",
    "borough_code": "Q",
    "lat": 40.756312,
    "lines": [
      "M",
      "R"
    ],
    "lon": -73.913333,
    "name": "46 St",
    "north_label": "Forest Hills",
    "south_label": "Manhattan"
  },
  "G19": {
    "borough": "Queens",
    "borough_code": "Q",
    "lat": 40.756879,
    "lines": [
      "M",
      "R"
    ],
    "lon": -73.92074,
    "name": "Steinway St",
    "north_label": "Forest Hills",
    "south_label": "Manhattan"
  },
  "G20": {
    "borough": "Queens",
    "borough_code": "Q",
    "lat": 40.752039,
    "lines": [
      "M",
      "R"
    ],
    "lon": -73.928781,
    "name": "36 St",
    "north_label": "Forest Hills",
    "south_label": "Manhattan"
  },
  "G21": {
    "borough": "Queens",
    "borough_code": "Q",
    "lat": 40.748973,
    "lines": [
      "E",
      "F",
      "R"
    ],
    "lon": -73.937243,
    "name": "Queens Plaza",
    "north_label": "Forest Hills - Jamaica",
    "south_label": "Manhattan"
  },
  "G22": {
    "borough": "Queens",
    "borough_code": "Q",
    "lat": 40.746554,
    "lines": [
      "G"
    ],
    "lon": -73.943832,
    "name": "Court Sq",
    "north_label": null,
    "south_label": "Brooklyn"
  },
  "G24": {
    "borough": "Queens",
    "borough_code": "Q",
    "lat": 40.744065,
    "lines": [
      "G"
    ],
    "lon": -73.949724,
    "name": "21 St",
    "north_label": "Court Sq",
    "south_label": "Brooklyn"
  },
  "G26": {
    "borough": "Brooklyn",
    "borough_code": "Bk",
    "lat": 40.731352,
    "lines": [
      "G"
    ],
    "lon": -73.954449,
    "name": "Greenpoint Av",
    "north_label": "Queens",
    "south_label": "Church Av"
  },
  "G28": {
    "borough": "Brooklyn",
    "borough_code": "Bk",
    "lat": 40.724635,
    "lines": [
      "G"
    ],
    "lon": -73.951277,
    "name": "Nassau Av",
    "north_label": "Queens",
    "south_label": "Church Av"
  },
  "G29": {
    "borough": "Brooklyn",
    "borough_code": "Bk",
    "lat": 40.712792,
    "lines": [
      "G"
    ],
    "lon": -73.951418,
    "name": "Metropolitan Av",
    "north_label": "Queens",
    "south_label": "Church Av"
  },
  "G30": {
    "borough": "Brooklyn",
    "borough_code": "Bk",
    "lat": 40.706092,
    "lines": [
      "G"
    ],
    "lon": -73.950308,
    "name": "Broadway",
    "north_label": "Queens",
    "south_label": "Church Av"
  },
  "G31": {
    "borough": "Brooklyn",
    "borough_code": "Bk",
    "lat": 40.700377,
    "lines": [
      "G"
    ],
    "lon": -73.950234,
    "name": "Flushing Av",
    "north_label": "Queens",
    "south_label": "Church Av"
  },
  "G32": {
    "borough": "Brooklyn",
    "borough_code": "Bk",
    "lat": 40.694568,
    "lines": [
      "G"
    ],
    "lon": -73.949046,
    "name": "Myrtle-Willoughby Avs",
    "north_label": "Queens",
    "south_label": "Church Av"
  },
  "G33": {
    "borough": "Brooklyn",
    "borough_code": "Bk",
    "lat": 40.689627,
    "lines": [
      "G"
    ],
    "lon": -73.953522,
    "name": "Bedford-Nostrand Avs",
    "north_label": "Queens",
    "south_label": "Church Av"
  },
  "G34": {
    "borough": "Brooklyn",
    "borough_code": "Bk",
    "lat": 40.688873,
    "lines": [
      "G"
    ],
    "lon": -73.96007,
    "name": "Classon Av",
    "north_label": "Queens",
    "south_label": "Church Av"
  },
  "G35": {
    "borough": "Brooklyn",
    "borough_code": "Bk",
    "lat": 40.688089,
    "lines": [
      "G"
    ],
    "lon": -73.966839,
    "name": "Clinton-Washington Avs",
    "north_label": "Queens",
    "south_label": "Church Av"
  },
  "G36": {
    "borough": "Brooklyn",
    "borough_code": "Bk",
    "lat": 40.687119,
    "lines": [
      "G"
    ],
    "lon": -73.975375,
    "name": "Fulton St",
    "north_label": "Queens",
    "south_label": "Church Av"
  },
  "H01": {
    "borough": "Queens",
    "borough_code": "Q",
    "lat": 40.672097,
    "lines": [
      "A"
    ],
    "lon": -73.835919,
    "name": "Aqueduct Racetrack",
    "north_label": "Manhattan",
    "south_label": "Rockaways"
  },
  "H02": {
    "borough": "Queens",
    "borough_code": "Q",
    "lat": 40.668234,
    "lines": [
      "A"
    ],
    "lon": -73.834058,
    "name": "Aqueduct-N Conduit Av",
    "north_label": "Manhattan",
    "south_label": "Rockaways"
  },
  "H03": {
    "borough": "Queens",
    "borough_code": "Q",
    "lat": 40.660476,
    "lines": [
      "A"
    ],
    "lon": -73.830301,
    "name": "Howard Beach-JFK Airport",
    "north_label": "Manhattan",
    "south_label": "Rockaways"
  },
  "H04": {
    "borough": "Queens",
    "borough_code": "Q",
    "lat": 40.608382,
    "lines": [
      "A",
      "S"
    ],
    "lon": -73.815925,
    "name": "Broad Channel",
    "north_label": "Manhattan",
    "south_label": "Rockaways"
  },
  "H06": {
    "borough": "Queens",
    "borough_code": "Q",
    "lat": 40.590927,
    "lines": [
      "A"
    ],
    "lon": -73.796924,
    "name": "Beach 67 St",
    "north_label": "Manhattan",
    "south_label": "Far Rockaway"
  },
  "H07": {
    "borough": "Queens",
    "borough_code": "Q",
    "lat": 40.592374,
    "lines": [
      "A"
    ],
    "lon": -73.788522,
    "name": "Beach 60 St",
    "north_label": "Manhattan",
    "south_label": "Far Rockaway"
  },
  "H08": {
    "borough": "Queens",
    "borough_code": "Q",
    "lat": 40.592943,
    "lines": [
      "A"
    ],
    "lon": -73.776013,
    "name": "Beach 44 St",
    "north_label": "Manhattan",
    "south_label": "Far Rockaway"
  },
  "H09": {
    "borough": "Queens",
    "borough_code": "Q",
    "lat": 40.595398,
    "lines": [
      "A"
    ],
    "lon": -73.768175,
    "name": "Beach 36 St",
    "north_label": "Manhattan",
    "south_label": "Far Rockaway"
  },
  "H10": {
    "borough": "Queens",
    "borough_code": "Q",
    "lat": 40.600066,
    "lines": [
      "A"
    ],
    "lon": -73.761353,
    "name": "Beach 25 St",
    "north_label": "Manhattan",
    "south_label": "Far Rockaway"
  },
  "H11": {
    "borough": "Queens",
    "borough_code": "Q",
    "lat": 40.603995,
    "lines": [
      "A"
    ],
    "lon": -73.755405,
    "name": "Far Rockaway-Mott Av",
    "north_label": "Manhattan",
    "south_label": null
  },
  "H12": {
    "borough": "Queens",
    "borough_code": "Q",
    "lat": 40.588034,
    "lines": [
      "A",
      "S"
    ],
    "lon": -73.813641,
    "name": "Beach 90 St",
    "north_label": "Manhattan",
    "south_label": "Rockaway Park"
  },
  "H13": {
    "borough": "Queens",
    "borough_code": "Q",
    "lat": 40.585307,
    "lines": [
      "A",
      "S"
    ],
    "lon": -73.820558,
    "name": "Beach 98 St",
    "north_label": "Manhattan",
    "south_label": "Rockaway Park"
  },
  "H14": {
    "borough": "Queens",
    "borough_code": "Q",
    "lat": 40.583209,
    "lines": [
      "A",
      "S"
    ],
    "lon": -73.827559,
    "name": "Beach 105 St",
    "north_label": "Manhattan",
    "south_label": "Rockaway Park"
  },
  "H15": {
    "borough": "Queens",
    "borough_code": "Q",
    "lat": 40.580903,
    "lines": [
      "A",
      "S"
    ],
    "lon": -73.835592,
    "name": "Rockaway Park-Beach 116 St",
    "north_label": "Manhattan",
    "south_label": null
  },
  "J12": {
    "borough": "Queens",
    "borough_code": "Q",
    "lat": 40.700492,
    "lines": [
      "J",
      "Z"
    ],
    "lon": -73.828294,
    "name": "121 St",
    "north_label": "Jamaica",
    "south_label": "Manhattan"
  },
  "J13": {
    "borough": "Queens",
    "borough_code": "Q",
    "lat": 40.697418,
    "lines": [
      "J"
    ],
    "lon": -73.836345,
    "name": "111 St",
    "north_label": "Jamaica",
    "south_label": "Manhattan"
  },
  "J14": {
    "borough": "Queens",
    "borough_code": "Q",
    "lat": 40.695178,
    "lines": [
      "J",
      "Z"
    ],
    "lon": -73.84433,
    "name": "104 St",
    "north_label": "Jamaica",
    "south_label": "Manhattan"
  },
  "J15": {
    "borough": "Queens",
    "borough_code": "Q",
    "lat": 40.693879,
    "lines": [
      "J",
      "Z"
    ],
    "lon": -73.851576,
    "name": "Woodhaven Blvd",
    "north_label": "Jamaica",
    "south_label": "Manhattan"
  },
  "J16": {
    "borough": "Queens",
    "borough_code": "Q",
    "lat": 40.692435,
    "lines": [
      "J"
    ],
    "lon": -73.86001,
    "name": "85 St-Forest Pkwy",
    "north_label": "Jamaica",
    "south_label": "Manhattan"
  },
  "J17": {
    "borough": "Queens",
    "borough_code": "Q",
    "lat": 40.691324,
    "lines": [
      "J",
      "Z"
    ],
    "lon": -73.867139,
    "name": "75 St-Elderts Ln",
    "north_label": "Jamaica",
    "south_label": "Manhattan"
  },
  "J19": {
    "borough": "Brooklyn",
    "borough_code": "Bk",
    "lat": 40.689941,
    "lines": [
      "J"
    ],
    "lon": -73.87255,
    "name": "Cypress Hills",
    "north_label": "Jamaica",
    "south_label": "Manhattan"
  },
  "J20": {
    "borough": "Brooklyn",
    "borough_code": "Bk",
    "lat": 40.683194,
    "lines": [
      "J",
      "Z"
    ],
    "lon": -73.873785,
    "name": "Crescent St",
    "north_label": "Jamaica",
    "south_label": "Manhattan"
  },
  "J21": {
    "borough": "Brooklyn",
    "borough_code": "Bk",
    "lat": 40.68141,
    "lines": [
      "J",
      "Z"
    ],
    "lon": -73.880039,
    "name": "Norwood Av",
    "north_label": "Jamaica",
    "south_label": "Manhattan"
  },
  "J22": {
    "borough": "Brooklyn",
    "borough_code": "Bk",
    "lat": 40.679947,
    "lines": [
      "J"
    ],
    "lon": -73.884639,
    "name": "Cleveland St",
    "north_label": "Jamaica",
    "south_label": "Manhattan"
  },
  "J23": {
    "borough": "Brooklyn",
    "borough_code": "Bk",
    "lat": 40.678024,
    "lines": [
      "J",
      "Z"
    ],
    "lon": -73.891688,
    "name": "Van Siclen Av",
    "north_label": "Jamaica",
    "south_label": "Manhattan"
  },
  "J24": {
    "borough": "Brooklyn",
    "borough_code": "Bk",
    "lat": 40.676992,
    "lines": [
      "J",
      "Z"
    ],
    "lon": -73.898654,
    "name": "Alabama Av",
    "north_label": "Jamaica",
    "south_label": "Manhattan"
  },
  "J27": {
    "borough": "Brooklyn",
    "borough_code": "Bk",
    "lat": 40.679498,
    "lines": [
      "J",
      "Z"
    ],
    "lon": -73.904512,
    "name": "Broadway Junction",
    "north_label": "Jamaica",
    "south_label": "Manhattan"
  },
  "J28": {
    "borough": "Brooklyn",
    "borough_code": "Bk",
    "lat": 40.682893,
    "lines": [
      "J",
      "Z"
    ],
    "lon": -73.910456,
    "name": "Chauncey St",
    "north_label": "Jamaica",
    "south_label": "Manhattan"
  },
  "J29": {
    "borough": "Brooklyn",
    "borough_code": "Bk",
    "lat": 40.68637,
    "lines": [
      "J"
    ],
    "lon": -73.916559,
    "name": "Halsey St",
    "north_label": "Jamaica",
    "south_label": "Manhattan"
  },
  "J30": {
    "borough": "Brooklyn",
    "borough_code": "Bk",
    "lat": 40.68963,
    "lines": [
      "J",
      "Z"
    ],
    "lon": -73.92227,
    "name": "Gates Av",
    "north_label": "Jamaica",
    "south_label": "Manhattan"
  },
  "J31": {
    "borough": "Brooklyn",
    "borough_code": "Bk",
    "lat": 40.693342,
    "lines": [
      "J"
    ],
    "lon": -73.928814,
    "name": "Kosciuszko St",
    "north_label": "Jamaica",
    "south_label": "Manhattan"
  },
  "L01": {
    "borough": "Manhattan",
    "borough_code": "M",
    "lat": 40.739777,
    "lines": [
      "L"
    ],
    "lon": -74.002578,
    "name": "8 Av",
    "north_label": null,
    "south_label": "Brooklyn"
  },
  "L02": {
    "borough": "Manhattan",
    "borough_code": "M",
    "lat": 40.737335,
    "lines": [
      "L"
    ],
    "lon": -73.996786,
    "name": "6 Av",
    "north_label": "8 Av",
    "south_label": "Brooklyn"
  },
  "L03": {
    "borough": "Manhattan",
    "borough_code": "M",
    "lat": 40.734789,
    "lines": [
      "L"
    ],
    "lon": -73.99073,
    "name": "14 St-Union Sq",
    "north_label": "8 Av",
    "south_label": "Brooklyn"
  },
  "L05": {
    "borough": "Manhattan",
    "borough_code": "M",
    "lat": 40.732849,
    "lines": [
      "L"
    ],
    "lon": -73.986122,
    "name": "3 Av",
    "north_label": "8 Av",
    "south_label": "Brooklyn"
  },
  "L06": {
    "borough": "Manhattan",
    "borough_code": "M",
    "lat": 40.730953,
    "lines": [
      "L"
    ],
    "lon": -73.981628,
    "name": "1 Av",
    "north_label": "8 Av",
    "south_label": "Brooklyn"
  },
  "L08": {
    "borough": "Brooklyn",
    "borough_code": "Bk",
    "lat": 40.717304,
    "lines": [
      "L"
    ],
    "lon": -73.956872,
    "name": "Bedford Av",
    "north_label": "Manhattan",
    "south_label": "Canarsie - Rockaway Parkway"
  },
  "L10": {
    "borough": "Brooklyn",
    "borough_code": "Bk",
    "lat": 40.714063,
    "lines": [
      "L"
    ],
    "lon": -73.950275,
    "name": "Lorimer St",
    "north_label": "Manhattan",
    "south_label": "Canarsie - Rockaway Parkway"
  },
  "L11": {
    "borough": "Brooklyn",
    "borough_code": "Bk",
    "lat": 40.714565,
    "lines": [
      "L"
    ],
    "lon": -73.944053,
    "name": "Graham Av",
    "north_label": "Manhattan",
    "south_label": "Canarsie - Rockaway Parkway"
  },
  "L12": {
    "borough": "Brooklyn",
    "borough_code": "Bk",
    "lat": 40.711926,
    "lines": [
      "L"
    ],
    "lon": -73.94067,
    "name": "Grand St",
    "north_label": "Manhattan",
    "south_label": "Canarsie - Rockaway Parkway"
  },
  "L13": {
    "borough": "Brooklyn",
    "borough_code": "Bk",
    "lat": 40.707739,
    "lines": [
      "L"
    ],
    "lon": -73.93985,
    "name": "Montrose Av",
    "north_label": "Manhattan",
    "south_label": "Canarsie - Rockaway Parkway"
  },
  "L14": {
    "borough": "Brooklyn",
    "borough_code": "Bk",
    "lat": 40.706152,
    "lines": [
      "L"
    ],
    "lon": -73.933147,
    "name": "Morgan Av",
    "north_label": "Manhattan",
    "south_label": "Canarsie - Rockaway Parkway"
  },
  "L15": {
    "borough": "Brooklyn",
    "borough_code": "Bk",
    "lat": 40.706607,
    "lines": [
      "L"
    ],
    "lon": -73.922913,
    "name": "Jefferson St",
    "north_label": "Manhattan",
    "south_label": "Canarsie - Rockaway Parkway"
  },
  "L16": {
    "borough": "Brooklyn",
    "borough_code": "Bk",
    "lat": 40.703811,
    "lines": [
      "L"
    ],
    "lon": -73.918425,
    "name": "DeKalb Av",
    "north_label": "Manhattan",
    "south_label": "Canarsie - Rockaway Parkway"
  },
  "L17": {
    "borough": "Brooklyn",
    "borough_code": "Bk",
    "lat": 40.699814,
    "lines": [
      "L"
    ],
    "lon": -73.911586,
    "name": "Myrtle-Wyckoff Avs",
    "north_label": "Manhattan",
    "south_label": "Canarsie - Rockaway Parkway"
  },
  "L19": {
    "borough": "Queens",
    "borough_code": "Q",
    "lat": 40.695602,
    "lines": [
      "L"
    ],
    "lon": -73.904084,
    "name": "Halsey St",
    "north_label": "Manhattan",
    "south_label": "Canarsie - Rockaway Parkway"
  },
  "L20": {
    "borough": "Brooklyn",
    "borough_code": "Bk",
    "lat": 40.688764,
    "lines": [
      "L"
    ],
    "lon": -73.904046,
    "name": "Wilson Av",
    "north_label": "Manhattan",
    "south_label": "Canarsie - Rockaway Parkway"
  },
  "L21": {
    "borough": "Brooklyn",
    "borough_code": "Bk",
    "lat": 40.682829,
    "lines": [
      "L"
    ],
    "lon": -73.905249,
    "name": "Bushwick Av-Aberdeen St",
    "north_label": "Manhattan",
    "south_label": "Canarsie - Rockaway Parkway"
  },
  "L22": {
    "borough": "Brooklyn",
    "borough_code": "Bk",
    "lat": 40.678856,
    "lines": [
      "L"
    ],
    "lon": -73.90324,
    "name": "Broadway Junction",
    "north_label": "Manhattan",
    "south_label": "Canarsie - Rockaway Parkway"
  },
  "L24": {
    "borough": "Brooklyn",
    "borough_code": "Bk",
    "lat": 40.675345,
    "lines": [
      "L"
    ],
    "lon": -73.903097,
    "name": "Atlantic Av",
    "north_label": "Manhattan",
    "south_label": "Canarsie - Rockaway Parkway"
  },
  "L25": {
    "borough": "Brooklyn",
    "borough_code": "Bk",
    "lat": 40.669367,
    "lines": [
      "L"
    ],
    "lon": -73.901975,
    "name": "Sutter Av",
    "north_label": "Manhattan",
    "south_label": "Canarsie - Rockaway Parkway"
  },
  "L26": {
    "borough": "Brooklyn",
    "borough_code": "Bk",
    "lat": 40.664038,
    "lines": [
      "L"
    ],
    "lon": -73.900571,
    "name": "Livonia Av",
    "north_label": "Manhattan",
    "south_label": "Canarsie - Rockaway Parkway"
  },
  "L27": {
    "borough": "Brooklyn",
    "borough_code": "Bk",
    "lat": 40.658733,
    "lines": [
      "L"
    ],
    "lon": -73.899232,
    "name": "New Lots Av",
    "north_label": "Manhattan",
    "south_label": "Canarsie - Rockaway Parkway"
  },
  "L28": {
    "borough": "Brooklyn",
    "borough_code": "Bk",
    "lat": 40.650573,
    "lines": [
      "L"
    ],
    "lon": -73.899485,
    "name": "East 105 St",
    "north_label": "Manhattan",
    "south_label": "Canarsie - Rockaway Parkway"
  },